Latitude,Longitude,Address
21.879285,-159.459214,"2360 Kiahuna Plantation Drive<br>Koloa, HI 96756<br>(808) 742-5144"
21.97116,-159.380923,"3-2600 Kaumualii Highway #A8<br>Lihue, HI 96766<br>(808) 241-7034"
21.971295,-159.375636,"4303 Nawiliwili Road<br>Lihue, HI 96766<br>(808) 245-7562"
21.979465,-159.34927,"LihueAirport  Unit 2  3901 Mokulele Loo<br>Lihue, HI 96766-970<br>(808) 245-8913"
22.078248,-159.315957,"4-831 Kuhio Highway #208<br>Kapaa, HI 96746<br>(808) 821-1334"
21.434788,-158.18458,"86 Farrington Highway<br>Waianae, HI 96792<br>(808) 697-8279"
21.343991,-158.116013,"563 Farrington Highway #101<br>Kapolei, HI 96707<br>(808) 674-8735"
21.3341,-158.08179,"338 Kamokila Boulevard #108<br>Kapolei, HI 96797<br>(808) 674-1941"
21.648414,-158.061706,"59-720 Kamehameha Highway<br>Haleiwa, HI 96712<br>(808) 638-0341"
21.483994,-158.058557,"Bldg. 693<br>Schofield Barracks, HI 96857-720"
21.3348,-158.0557,"4450 Kapolei Pkwy<br>Kapolei, HI 96707<br>(808) 457-3679"
21.387129,-158.033009,"94-673 Kupuohi Street<br>Waipahu, HI 96797<br>(808) 680-9221"
21.333873,-158.024426,"91-1401 Fort Weaver Road<br>Honolulu, HI 96706<br>(808) 685-4594"
21.457692,-158.016089,"95-221 Kipapa Drive<br>Mililani Town, HI 96789<br>(808) 625-5401"
21.394206,-158.01416,"94-799 Lumiaina Street<br>Waipahu, HI 96797<br>(808) 678-3418"
21.454077,-158.006444,"95-1249 Meheula Parkway<br>Mililani Town, HI 96789<br>(808) 627-1846"
21.426618,-158.001421,"94-1221 Ka Uka Boulevard<br>Waipahu, HI 96797<br>(808) 680-9213"
21.399388,-157.973787,"1029 Makolu Street<br>Pearl City, HI 96782<br>(808) 455-1800"
21.389718,-157.952167,"98-1277 Kaahumanu Street<br>Aiea, HI 96701<br>(808) 484-5802"
21.390634,-157.947709,"98-1005 Moanalua Road<br>Aiea, HI 96701<br>(808) 484-9355"
21.3891,-157.946269,"98 Moanalua Road<br>Aiea, HI 96701<br>(808) 484-5772"
21.387332,-157.941572,"98-125 Kaonohi Street<br>Aiea, HI 96701<br>(808) 484-9548"
21.365403,-157.930782,"4561 Salt Lake Boulevard<br>Aiea, HI 96818<br>(808) 488-9313"
21.378766,-157.929876,"99-115 Aiea Heights Drive #125<br>Aiea, HI 96701<br>(808) 484-1488"
21.341317,-157.929461,"930 Valkenburgh Street<br>Honolulu, HI 96818<br>(808) 422-2804"
21.365684,-157.927421,"4510 Salt Lake Blvd Ste D5<br>Honolulu, HI 96818<br>(808) 441-3118"
21.332757,-157.920154,"300 Rogers Blvd<br>Honolulu, HI 96820"
21.332757,-157.920154,"300 Rogers Boulevard<br>Honolulu, HI 96819<br>(808) 836-2566"
21.332757,-157.920154,"300 Rogers Blvd.<br>Honolulu, HI 96820"
21.332757,-157.920154,"300 Rogers Boulevard<br>Honolulu, HI 96819<br>(808) 836-2566"
21.332757,-157.920154,"300 Rogers Blvd.<br>Honolulu, HI 96820<br>(808) 833-9939"
21.332757,-157.920154,"300 Rogers Boulevard<br>Honolulu, HI 96819<br>(808) 833-9939"
21.332757,-157.920154,"300 Rogers Blvd.<br>Honolulu, HI 96820"
21.335372,-157.915871,"550 Paiea Street<br>Honolulu, HI 96819<br>(808) 833-3519"
21.336368,-157.869095,"1620 North School Street<br>Honolulu, HI 96817<br>(808) 832-1430"
21.308591,-157.86222,"130 Merchant Street #111<br>Honolulu, HI 96813<br>(808) 585-8658"
21.308877,-157.861157,"1000 Bishop Street #104<br>Honolulu, HI 96813<br>(808) 599-4833"
21.308009,-157.860587,"1025 Alakea Street<br>Honolulu, HI 96813<br>(808) 538-7600"
21.295419,-157.85628,"949 Auahi Street<br>Honolulu, HI 96814<br>(808) 589-2012"
21.293718,-157.852955,"310 Kamakee Street #6<br>Honolulu, HI 96814<br>(808) 593-1945"
21.289453,-157.842783,"1450 Ala Moana Blvd.<br>Honolulu, HI 96814<br>(808) 943-2416"
21.289557,-157.842759,"1450 Ala Moana Blvd.<br>Honolulu, HI 96814<br>(808) 943-2437"
21.294452,-157.841919,"678 Keeamoku Street #106<br>Honolulu, HI 96814<br>(808) 946-7513"
21.282716,-157.836199,"2005 Kalia Rd<br>Honolulu, HI 96815<br>(808) 949-4321"
21.278678,-157.83231,"2169 Kalia Road #102<br>Honolulu, HI 96815<br>(808) 922-8694"
21.277975,-157.82797,"2201 Kalakaua Ave<br>Honolulu, HI 96814<br>(808) 922-4110"
21.281037,-157.827508,"330 Royal Hawaiian Avenue<br>Honolulu, HI 96815<br>(808) 926-4863"
21.279924,-157.826989,"2255 Kuhio Avenue<br>Honolulu, HI 96815<br>(808) 921-2190"
21.278818,-157.825031,"2330 Kuhio Avenue<br>Honolulu, HI 96815<br>(808) 922-9570"
21.263388,-157.820446,"2856 Kalakaua Avenue<br>Honolulu, HI 96815<br>(808) 923-5726"
21.2791,-157.813899,"625 Kapahulu Avenue<br>Honolulu, HI 96815<br>(808) 734-4116"
21.284147,-157.813736,"900 Kapahulu Ave<br>Honolulu, HI 96816<br>(808) 524-4554"
21.309929,-157.810348,"2902 East Manoa Road<br>Honolulu, HI 96822<br>(808) 988-9295"
21.42647,-157.806903,"46-023 Kamehameha Highway<br>Kaneohe, HI 96744<br>(808) 234-5425"
21.400435,-157.798412,"45-480 Kaneohe Bay Drive<br>Honolulu, HI 96744<br>(808) 234-6900"
21.278571,-157.787564,"4211 Waialae Avenue<br>Honolulu, HI 96816<br>(808) 737-0283"
21.4045,-157.7456,"Mokapu Mall  Bldg 6477<br>Kailua, HI 96734"
21.393191,-157.740714,"539 Kailua Road<br>Kailua, HI 96734<br>(808) 263-9548"
21.378044,-157.729241,"1020 Keolu Drive<br>Kailua, HI 96734<br>(808) 263-3061"
21.282724,-157.711277,"333 Keahole Street<br>Honolulu, HI 96825<br>(808) 396-3013"
21.277398,-157.70462,"7192 Kalanianaole Highway<br>Honolulu, HI 96825<br>(808) 394-5577"
20.885655,-156.683003,"1221 Honoapiilani Highway<br>Lahaina, HI 96761<br>(808) 661-0865"
20.876391,-156.680765,"878 Front Street<br>Lahaina, HI 96761<br>(808) 667-6974"
20.891963,-156.477614,"275 West Kaahuman Avenue #1200 F5<br>Kahului, HI 96732<br>(808) 871-6290"
20.881571,-156.454708,"270 Dairy Road<br>Kahului, HI 96732<br>(808) 871-7884"
20.735205,-156.452823,"1819 South Kihei Road<br>Kihei, HI 96753<br>(808) 891-0903"
20.887856,-156.451747,"1 KahuluiAirport Road Unit 9<br>Kahului, HI 96732<br>(808) 877-5858"
20.75066,-156.451338,"247 Piikea Avenue #106<br>Kihei, HI 96753<br>(808) 891-0755"
20.752511,-156.448144,"277 Pi'ikea Avenue<br>Kihei, HI 96753<br>(808) 891-9120"
20.892805,-156.438779,"New Terminal Bldg @ Bldg 340<br>KahuluiAirport, HI 96732<br>(808) 877-5858"
20.837699,-156.342146,"55 Pukalani Street<br>Pukalani, HI 96768<br>(808) 573-5458"
59.6432,-151.534,"90 Sterling Hwy<br>Homer, AK 99603"
60.483737,-151.066613,"44282 Sterling Hwy S<br>Soldotna, AK 99669<br>(907) 714-5400"
60.4895,-151.049,"43843 Sterling Hwy<br>Soldotna, AK 99669<br>(907) 260-2200"
61.176563,-149.97307,"5000 W IntlAirport Rd<br>Anchorage, AK 99502"
61.1554,-149.9583,"HMSHost  500 West InternationalAirport<br>Anchorage, AK 99502"
61.136451,-149.95582,"4000 W Dimond Blvd<br>Anchorage, AK 99515-1101"
61.136322,-149.9195,"2000 W Dimond Blvd<br>Anchorage, AK 99515-1400<br>(907) 267-6700"
61.195285,-149.915447,"1650 W Northern Lights Blvd<br>Anchorage, AK 99503<br>(907) 339-0500"
61.217853,-149.894236,"601 West 5th Avenue<br>Anchorage, AK 99501<br>(907) 277-2477"
61.180299,-149.883887,"110 W. Tudor Rd<br>Anchorage, AK 99503<br>(907) 561-3141"
61.12848,-149.882215,"150 W 100th Ave Suite A<br>Anchorage, AK 99515<br>(907) 267-7500"
61.194346,-149.865019,"1000 E Northern Lights Blvd<br>Anchorage, AK 99508-4283<br>(907) 264-9600"
61.14478,-149.86379,"1005 E Dimond Blvd<br>Anchorage, AK 99515<br>(907) 344-4160"
61.142176,-149.844686,"1725 Abbott Rd<br>Anchorage, AK 99507<br>(907) 339-2800"
61.137442,-149.83964,"2300 Abbott Road<br>Anchorage, AK 99507<br>(907) 365-2000"
61.181359,-149.83548,"2421 East Tudor Road<br>Anchorage, AK 99507<br>(907) 561-1644"
61.215507,-149.822907,"3101 Penland Pkwy.<br>Anchorage, AK 99508<br>(907) 339-5200"
61.189723,-149.821917,"3211 Providence Drive<br>Anchorage, AK 99508<br>(907) 751-7491"
61.208659,-149.77647,"5600 Debarr Rd<br>Anchorage, AK 99504<br>(907) 339-0900"
61.2272,-149.7534,"Bldg 5800 Westover Avenue<br>Anchorage, AK 99506<br>(907) 753-4420"
61.23118,-149.741452,"1200 N Muldoon Rd<br>Anchorage, AK 99506"
61.196257,-149.735762,"7731 E Northern Lights Blvd<br>Anchorage, AK 99504<br>(907) 331-1700"
61.2621,-149.6772,"Frontier Theater  Building 2<br>Fort Richardson, AK 99505<br>(907) 428-1173"
61.32447,-149.573017,"11409 Business Blvd<br>Eagle River, AK 99577<br>(907) 696-6400"
61.32549,-149.57037,"16707 Coronado Road<br>Eagle River, AK 99577<br>(907) 696-6055"
61.342603,-149.557464,"13401 Old Glenn Hwy<br>Eagle River, AK 99577"
61.579432,-149.497284,"1801 E Parks Hwy<br>Wasilla, AK 99654<br>(907) 631-7200"
60.1263,-149.436,"1907 Seward Hwy<br>Seward, AK 99664"
61.578129,-149.414183,"1501 East Parks Highway<br>Wasilla, AK 99654<br>(907) 352-5000"
61.600404,-149.118333,"650 N Cobb St<br>Palmer, AK 99645<br>(907) 761-4200"
64.836724,-147.817063,"3755Airport Way<br>Fairbanks, AK 99709-4610<br>(907) 474-1403"
64.836718,-147.810808,"3627Airport Way (405R)<br>Fairbanks, AK 99701<br>(907) 374-4000"
64.851206,-147.70561,"30 College Rd<br>Fairbanks, AK 99701<br>(907) 374-4100"
64.851938,-147.690964,"930 Old Steese Hwy<br>Fairbanks, AK 99701<br>(907) 459-4629"
64.827778,-147.679722,"Bldg # 3703B<br>Fort Wainwright, AK 99703"
58.3595,-134.5532,"8181 Old Glacier Hwy<br>Juneau, AK 99801-8035<br>(907) 789-6500"
58.359115,-134.548276,"303 Vintage Blvd<br>Juneau, AK 99801<br>(907) 523-2000"
55.349452,-131.673818,"2417 Tongass Ave<br>Ketchikan, AK 99901<br>(907) 228-1900"
54.314894,-130.323299,"200 2nd Ave W<br>Prince Rupert, BC V8J 1G5"
54.516797,-128.591391,"4655 Lakelse<br>Terrace, BC V8G 1R3"
54.780018,-127.164138,"3664 Highway 16<br>Smithers, BC V0J 2N0"
50.028998,-125.249423,"1400 Dogwood Street<br>Campbell River, BC V9W 3A6<br>(250) 830-1035"
49.982576,-125.223675,"1416 Island Highway<br>Campbell River, BC V9W 2E3<br>(250) 286-6335"
49.685094,-124.991921,"1551 Cliffe Avenue<br>Courtneay, BC V9N 2K6"
49.684355,-124.990694,"1661 Cliffe Ave<br>Courtenay, BC V9N 2K6<br>(250) 703-0003"
49.266226,-124.785118,"101-3555 Johnston Rd<br>Port Alberni, BC V9Y 8K2<br>(250) 723-5242"
49.841768,-124.518856,"7040 Barnet St<br>Powell River, BC V8A 2A1"
49.841796,-124.517781,"7065 Barnet Street<br>Powell River, BC V8A 1Z9<br>(604) 485-1270"
49.318844,-124.300932,"382 E Island Highway<br>Parksville, BC V9P 1K8<br>(250) 248-9720"
42.055267,-124.28799,"325 5th St<br>Brookings, OR 97415<br>(541) 469-1610"
43.406581,-124.235477,"1735 Virginia Ave<br>North Bend, OR 97459<br>(541) 751-7000"
43.35795,-124.209983,"230 East Johnson<br>Coos Bay, OR 97420"
41.761639,-124.198193,"450 Hwy 101 N<br>Crescent City, CA 95531<br>(707) 464-2080"
40.801463,-124.167448,"326 5th Street<br>Eureka, CA 95501<br>(707) 445-2685"
40.799229,-124.147545,"1117 Myrtle Avenue<br>Eureka, CA 95501<br>(707) 445-2672"
40.578666,-124.146679,"1095 S. Fortuna Blvd.<br>Fortuna, CA 95540<br>(707) 726-7870"
40.805575,-124.144039,"2525 4th St<br>Eureka, CA 95501<br>(707) 442-0201"
43.972821,-124.10443,"700 Hwy 101<br>Florence, OR 97439<br>(541) 902-1900"
40.940248,-124.101454,"1924 Central Ave.<br>Mckinleyville, CA 95519<br>(707) 840-0253"
44.635518,-124.05335,"122 N. Coast Highway<br>Newport, OR 97365<br>(541) 265-8610"
44.651984,-124.051649,"150 NE 20th St<br>Newport, OR 97365<br>(541) 265-4581"
49.236215,-124.045904,"6631 Island Highway<br>Nanaimo, BC V9T 4T7<br>(250) 390-3835"
49.229852,-124.04365,"6334 Metral Drive<br>Nanaimo, BC V9T 2L8<br>(250) 390-9861"
49.234901,-124.03879,"6650 Mary Ellen Drive<br>Nanaimo, BC V9T 4T7<br>(250) 390-9094"
44.942606,-124.02109,"3350 N E HWY 101<br>Lincoln City, OR 97367<br>(541) 994-3365"
44.996098,-124.005464,"4101 Logan Rd<br>Lincoln City, OR 97367<br>(541) 994-8667"
49.204887,-124.004309,"3200 Island Highway<br>Nanaimo, BC V9T 1W1<br>(250) 758-5955"
49.18357,-123.955259,"1150 North Terminal Avenue<br>Nanaimo, BC V9S 5L6<br>(250) 716-7828"
49.15517,-123.951929,"540 5th Street<br>Nanaimo, BC V9R 1P1<br>(250) 754-6552"
45.991003,-123.921507,"401 S Roosevelt<br>Seaside, OR 97138<br>(503) 738-7122"
46.145583,-123.918886,"695 Highway 101<br>Warrenton, OR 97146<br>(503) 861-3000"
46.161783,-123.897866,"171 South Hwy 101<br>Warrenton, OR 97146<br>(503) 861-5633"
45.45659,-123.845138,"210 Ivy Ave<br>Tillamook, OR 97141<br>(503) 842-4608"
45.473456,-123.844269,"2500 North Main St<br>Tillamook, OR 97141-772"
46.971863,-123.818643,"221 W Heron St<br>Aberdeen, WA 98520<br>(360) 533-1955"
46.1919,-123.80808,"3250 Lief Erikson Drive<br>Astoria, OR 97103<br>(503) 338-2960"
39.434934,-123.805514,"576 South Main Street<br>Fort Bragg, CA 95437<br>(707) 964-4256"
46.977412,-123.8021,"1202 E. Wishkah St.<br>Aberdeen, WA 98520<br>(360) 532-0349"
49.472416,-123.745972,"5500 Sunshine Coast Highway<br>Sechelt, BC V0N 3A1<br>(604) 740-8144"
48.785955,-123.706956,"2755 Beverly Street<br>Duncan, BC V9L 6X2<br>(250) 737-1077"
48.776769,-123.701064,"350 Trunk Road<br>Duncan, BC V9L 2P2<br>(250) 746-9394"
48.776779,-123.700011,"436 Trunk Rd<br>Duncan, BC V9I 2P7"
48.718356,-123.618699,"680 TransCanada Highway<br>Nanaimo, BC V9S 5R1<br>(250) 754-1594"
48.547881,-123.565657,"370 Trans Canada Hwy<br>Ladysmith, BC V0R 2E0"
49.406739,-123.51945,"900 Gibson Way  RR #7<br>Gibsons, BC V0N 1V7<br>(604) 886-8415"
48.441358,-123.51103,"2945 Jacklin Road<br>Victoria, BC V9B 5E3<br>(250) 474-3450"
48.441623,-123.510873,"2972 Jacklin Road<br>Victoria, BC V9B 0A3<br>(250) 478-7878"
48.448978,-123.499349,"782 Goldstream Avenue<br>Victoria, BC V9B 2X3<br>(250) 474-3937"
48.460119,-123.499181,"719 McCallum Road<br>Langford, BC V9B 6A2<br>(250) 478-1749"
43.299737,-123.467466,"929 NW Garden Valley Rd<br>Roseburg, OR 97470<br>(541) 672-8581"
48.1163,-123.435,"110 E 3rd St<br>Port Angeles, WA 98362<br>(360) 457-0788"
48.648886,-123.402209,"2345 Beacon Avenue<br>Sidney, BC V8L 1W9"
48.449075,-123.398976,"2961 Tillicum Road<br>Saanich, BC V9A 2A6<br>(250) 381-4787"
48.64892,-123.397059,"2471 Beacon Avenue<br>Sidney, BC V8L 1X7<br>(250) 655-0949"
48.452666,-123.395006,"108 3170 Tillicum Rd<br>Saanich, BC V9A 6T2"
48.452666,-123.395006,"3170 Tillicum Road<br>Victoria, BC V9A 7C5<br>(250) 414-0442"
48.498776,-123.384538,"550-777 Royal Oak Dr<br>Victoria, BC V8X 4V1<br>(250) 744-4225"
48.43287,-123.382128,"140-176 Wilson Street<br>Victoria, BC V9A 7N6<br>(250) 360-1140"
48.1057,-123.38,"2709 E. HIGHWAY 101<br>Port Angeles, WA 98362"
48.415801,-123.375521,"425 Simcoe Street<br>Victoria, BC V8V 4T3<br>(250) 361-4884"
48.447053,-123.372074,"3180 Douglas St<br>Victoria, BC V8Z 3K5<br>(250) 360-0339"
48.445828,-123.371099,"3147 Douglas Street<br>Victoria, BC V8Z 6E3<br>(250) 383-6395"
43.230817,-123.370519,"1122 NW Garden Valley Blvd<br>Roseburg, OR 97471<br>(541) 672-3729"
48.426105,-123.367609,"1234 Government<br>Victoria, BC V8W 1Y3<br>(250) 920-7203"
48.426586,-123.367478,"1301 Government St.<br>Victoria, BC V8W 1Y9<br>(250) 383-4448"
48.429333,-123.367049,"1 - 1689 Government Street<br>Victoria, BC V8W 0A1<br>(250) 382-7662"
48.425056,-123.365227,"1150 Douglas Street<br>Victoria, BC V8W 3M9<br>(250) 381-1150"
48.425551,-123.365076,"1212 Douglas St.<br>Victoria, BC V8W 2E5<br>(250) 380-9009"
48.469785,-123.364371,"3995 Quadra St<br>Victoria, BC V8X 1J8<br>(250) 727-6394"
43.239311,-123.36329,"3013 NW Stewart Pkwy<br>Roseburg, OR 97470<br>(541) 672-8294"
48.424304,-123.362461,"801 Fort Street<br>Victoria, BC V8W 1H6<br>(250) 383-6208"
48.425714,-123.359828,"865 Yates Street<br>Victoria, BC V8W 2K7<br>(250) 360-2246"
48.415388,-123.356157,"320 Cook Street<br>Victoria, BC V8V 3X6<br>(250) 380-7606"
39.403424,-123.350245,"845 Main Street<br>Willits, CA 95490<br>(707) 459-5862"
43.229219,-123.349507,"1539 NE Stephens<br>Roseburg, OR 97470<br>(541) 957-2540"
48.412219,-123.337239,"1594 Fairfield Road<br>Victoria, BC V8S 1G1<br>(250) 370-6099"
48.445341,-123.334367,"1644 Hillside Ave.<br>Victoria, BC V8T 2C5<br>(250) 370-0776"
48.458534,-123.332949,"3605 Shelbourne Street<br>Victoria, BC V8P 4H1<br>(250) 472-0513"
48.476279,-123.332905,"4077 Shelbourne Street<br>Victoria, BC V8N 5Y1<br>(250) 477-3134"
48.46891,-123.33275,"3958 Shelbourne St<br>Victoria, BC V8N 3E2<br>(205) 477-2433"
48.468673,-123.330851,"104-1646 McKenzie Avenue<br>Victoria, BC V8N 0A3<br>(250) 472-3235"
48.431755,-123.323902,"1959 Fort St.<br>Victoria, BC V8R 1K4<br>(250) 370-9071"
48.431282,-123.322485,"1950 Foul Bay<br>Victoria, BC V8R 5A7"
48.426525,-123.316709,"2182 Oak Bay Avenue<br>Victoria, BC V8R 1G3<br>(250) 598-8666"
44.929338,-123.312659,"138 W Ellendale Ave<br>Dallas, OR 97338<br>(503) 831-6000"
44.551002,-123.311508,"5270 SW Philomath Blvd<br>Corvallis, OR 97333<br>(541) 738-2100"
44.929762,-123.30958,"244 E Ellendale Ave<br>Dallas, OR 97338<br>(503) 623-5231"
48.461574,-123.296354,"3849 Cadboro Bay Road<br>Victoria, BC V8N 4G3<br>(250) 382-8119"
44.589999,-123.276011,"2305 NW Kings Blvd<br>Corvallis, OR 97330<br>(541) 758-4069"
44.575374,-123.274215,"777 Kings Blvd<br>Corvallis, OR 97330-5620<br>(541) 754-5559"
49.374458,-123.274065,"3-6390 Bay Street<br>West Vancouver, BC V7W 2G9<br>(604) 913-3477"
44.563974,-123.262683,"425 Southwest Madison Avenue<br>Corvallis, OR 97333<br>(541) 753-5318"
44.583944,-123.257582,"1705 NW 9th Street<br>Corvallis, OR 97330<br>(541) 738-1172"
49.35048,-123.252983,"5339 Headland Drive<br>West Vancouver, BC V7W 3C7<br>(604) 922-4955"
49.350692,-123.252373,"5385 Headland Dr<br>West Vancouver, BC V7W 3E7"
44.587339,-123.251047,"590 NE Circle Blvd<br>Corvallis, OR 97330<br>(541) 753-2966"
49.267679,-123.250465,"6138 Student Union Blvd<br>Vancouver, BC V6T 1Z4<br>(604) 822-3461"
49.262106,-123.250267,"2332 Main Mall<br>Vancouver, BC V6T 1Z4<br>(604) 827-5779"
49.261524,-123.246432,"6190 Agronomy Road  UBC<br>Vancouver, BC V6T 1L9<br>(604) 221-6434"
49.265755,-123.24268,"5763 Dalhousie Road<br>Vancouver, BC V6T 2H9<br>(604) 221-0200"
45.20308,-123.22731,"829 SW Keck Drive<br>McMinnville, OR 97128<br>(503) 472-8640"
49.263859,-123.211558,"4580 West 10th Ave.<br>Vancouver, BC V6R 2J2<br>(604) 222-1456"
44.229062,-123.206722,"1755 Ivy Street<br>Junction City, OR 97448<br>(541) 998-4520"
39.143997,-123.205699,"653 S State St<br>Ukiah, CA 94582<br>(707) 467-2700"
39.132169,-123.199207,"1212Airport Park Blvd.<br>Ukiah, CA 95482<br>(707) 467-9637"
39.151936,-123.19531,"704 E. Perkins Street<br>Ukiah, CA 94582<br>(707) 463-2615"
49.246482,-123.18528,"4467 Dunbar Street<br>Vancouver, BC V6S 2G4<br>(604) 222-8069"
49.256485,-123.185086,"3398 Dunbar Street<br>Vancouver, BC V6S 2C1<br>(604) 731-5065"
49.169966,-123.182861,"3677 Westminster Highway<br>Richmond, BC V6X 2C7<br>(604) 207-1177"
49.123871,-123.18109,"4010 Bayview Street<br>Richmond, BC V7E 6T5<br>(604) 204-0288"
49.33429,-123.179932,"2416 Marine Drive<br>West Vancouver, BC V7V 1L1<br>(604) 913-2171"
49.194755,-123.178774,"3211 Grant McConachie Way<br>Richmond, BC V7B 1X8"
49.194755,-123.178774,"3211 Grant McConnachie Way<br>Richmond, BC V7B 1X7<br>(604) 231-3731"
49.194755,-123.178774,"3211 Grant McConnachie Way<br>Richmond, BC V7B 1X7<br>(604) 231-3731"
49.194755,-123.178774,"3211 Grant McConnachie Way<br>Richmond, BC V7B 1X7<br>(604) 231-3731"
49.194755,-123.178774,"3211 Grant McConnachie Way<br>Richmond, BC V7B 1X7<br>(604) 231-3731"
49.194755,-123.178774,"3211 Grant McConachie Way<br>Richmond, BC V7B 1X8"
44.070013,-123.178593,"4740 Royal Ave<br>Eugene, OR 97402<br>(541) 688-6497"
45.22856,-123.17327,"2490 N Hwy 99<br>McMinnville, OR 97225<br>(503) 435-3120"
49.161842,-123.171951,"8671 # Road<br>Richmond, BC V7C 1V2"
49.268414,-123.171744,"2948 West 4th Avenue<br>Vancouver, BC V6K 1R2<br>(604) 732-6171"
49.264094,-123.170179,"2902 West Broadway<br>Vancouver, BC V6K 2G8<br>(604) 736-7876"
49.257828,-123.16834,"3190 MacDonald Street<br>Vancouver, BC V6K 4W7<br>(604) 733-4601"
49.264176,-123.167065,"2733 W. Broadway<br>Vancouver, BC V6K 2G5<br>(604) 732-7318"
49.264167,-123.166464,"2699 West Broadway<br>Vancouver, BC V6K 2G2<br>(604) 736-6126"
49.234649,-123.160627,"2348 West 41st Ave<br>Vancouver, BC V6M 2A4<br>(604) 267-7703"
49.32861,-123.160618,"1718 Marine Drive<br>West Vancouver, BC V7V 1J3<br>(604) 925-9766"
49.154633,-123.158907,"8100 No. 2 Road<br>Richmond, BC V7C 3M2<br>(604) 241-7842"
49.268211,-123.157853,"2315 W 4th Ave<br>Vancouver, BC V6K 1P2"
49.234631,-123.157584,"2193 West 41st Avenue<br>Vancouver, BC V5P 1L3<br>(604) 264-0954"
49.268161,-123.156818,"2270 West 4th Street<br>Vancouver, BC V6K 1N8<br>(604) 737-0477"
49.155579,-123.156564,"6140 Blundell Road<br>Richmond, BC V7C 1H6"
49.272575,-123.15496,"1500 Yew Street<br>Vancouver, BC V6K 3E4<br>(604) 731-2059"
49.244211,-123.153398,"4635 Arbutus Street<br>Vancouver, BC V6J 4A3<br>(604) 261-5447"
49.248113,-123.153279,"4255 Arbutus St<br>Vancouver, BC V6J 4R1<br>(604) 731-5331"
49.272486,-123.14773,"1895 Cornwall Ave<br>Vancouver, BC V6J 1C6<br>(604) 733-6211"
49.170112,-123.147587,"7000 Westminster Hwy<br>Richmond, BC V6X 1A2<br>(604) 244-5540"
49.703292,-123.145775,"1200 Hunter Place<br>Squamish, BC V0N 3G0<br>(604) 815-4334"
49.269302,-123.145668,"1855 Burrard Street<br>Vancouver, BC V6J 3G9<br>(604) 733-4205"
49.263723,-123.144715,"1758 West Broadway<br>Vancouver, BC V6J 1Y1<br>(604) 730-1218"
44.048177,-123.144041,"3333 W 11th Ave<br>Eugene, OR 97402<br>(541) 484-4223"
49.287228,-123.141729,"1795 Davie Street<br>Vancouver, BC V6G 2M9<br>(604) 899-4322"
49.213118,-123.140347,"8002 Granville Street<br>Vancouver, BC V6P 4Z4<br>(604) 266-9222"
49.170166,-123.140261,"Westminster Highway & Minoru Blvd<br>Richmond, BC V6X 1A3"
49.28569,-123.139361,"1645 Davie  Street<br>Vancouver, BC V6G 1W1<br>(604) 687-2499"
49.285649,-123.139298,"1641 Davie Street<br>Vancouver, BC V6G 1W1"
49.263541,-123.13859,"2505 Granville Street<br>Vancouver, BC V6H 3G7<br>(604) 731-5743"
49.261794,-123.13855,"2690 Granville St<br>Vancouver, BC V6H 3H2<br>(604) 736-8666"
49.265434,-123.138472,"2288 Granville Street<br>Vancouver, BC V6H 4H7<br>(604) 732-8961"
49.139797,-123.138188,"10151 No. 3 Road<br>Richmond, BC V7A 4R6<br>(604) 241-7826"
49.269519,-123.138185,"1500 West 2nd Avenue<br>Vancouver, BC V6J 1H2<br>(604) 736-5477"
49.32673,-123.137788,"901 Park Royal South<br>West Vancouver, BC V7T 2W4<br>(604) 913-1043"
49.32642,-123.137761,"2002 Park Royal South<br>West Vancouver, BC V7T 2W8<br>(604) 922-6668"
49.165833,-123.136653,"6551 No 3 Road<br>Richmond, BC V6Y 2B6<br>(604) 233-0511"
49.291595,-123.135328,"785 Denman Street<br>Vancouver, BC V6G 2L6<br>(604) 684-7225"
49.291136,-123.134963,"1766 Robson Street<br>Vancouver, BC V6G 1E2"
49.172011,-123.134463,"8111 Ackroyd Road<br>Richmond, BC V6C 3J9<br>(604) 279-9676"
49.290488,-123.133941,"1702 Robson Street<br>Vancouver, BC V6G 1C9<br>(604) 685-5517"
49.172006,-123.13386,"8171 Ackroyd Road<br>Richmond, BC V6X 3J9<br>(604) 231-1884"
49.736169,-123.132912,"40147 Glenalder Place<br>Squamish, BC V8B 0G2<br>(604) 898-9510"
49.281242,-123.132532,"1160 Davie Street<br>Vancouver, BC V6E 1N1<br>(604) 408-5101"
49.280353,-123.131139,"1097 Davie Street<br>Vancouver, BC V6E 1M3<br>(604) 687-4070"
49.210945,-123.130204,"8273 Oak Street<br>Vancouver, BC V6P 4A8<br>(604) 263-5253"
49.291447,-123.129316,"1601 Bayshore Dr<br>Vancouver, BC V6G 2V4"
48.078311,-123.129279,"1095 W. Washington Street<br>Sequim, WA 98382<br>(360) 681-2449"
49.287019,-123.128536,"1301 Robson Street<br>Vancouver, BC V6E 4A2<br>(604) 801-5820"
49.280185,-123.127487,"1088 Burrard St<br>Vancouver, BC V6Z 2R9<br>(604) 331-1000"
49.191081,-123.127456,"8525 Sea Island Way<br>Richmond, BC V6X 0A8<br>(604) 247-0717"
49.251529,-123.127433,"3820 Oak Street<br>Vancouver, BC V6H 2M5<br>(604) 731-6578"
49.27891,-123.125562,"1095 Howe Street<br>Vancouver, BC V6Z 1P6<br>(604) 685-7083"
49.260726,-123.125458,"2787 Laurel Street<br>Vancouver, BC V5Z 3J5<br>(604) 709-9799"
49.243639,-123.125389,"4500 Oak Street<br>Vancouver, BC V6H 3N1<br>(604) 708-2177"
49.276543,-123.125225,"605 Davie Street<br>Vancouver, BC V6B 2G6<br>(604) 622-5558"
49.284604,-123.124883,"100-1100 Robson St<br>Vancouver, BC V6E 1B2<br>(604) 685-7991"
49.281947,-123.124829,"930 Burrard Street<br>Vancouver, BC V6Z 3G5<br>(604) 683-4464"
49.284595,-123.124814,"1099 Robson Street<br>Vancouver, BC V6E 1B2<br>(604) 685-1099"
49.287943,-123.124025,"580 Bute St<br>Vancouver, BC V6E 3M1<br>(604) 682-4635"
49.265904,-123.122202,"818 West 6th Ave<br>Vancouver, BC V5Z 1A6<br>(604) 875-6503"
49.274586,-123.122069,"1195 Mainland St<br>Vancouver, BC V6B 2S2<br>(604) 662-4030"
49.284993,-123.121965,"1055 West Georgia Street<br>Vancouver, BC V6C 3P2<br>(604) 685-5882"
49.282534,-123.121951,"811 Hornby St<br>Vancouver, BC V6Z 2E6<br>(604) 685-3695"
49.278789,-123.121691,"980 Seymour Street<br>Vancouver, BC V6B 3L9<br>(604) 608-8743"
49.284723,-123.121609,"1030 W. Georgia Street<br>Vancouver, BC V6E 2Y3<br>(604) 632-3828"
49.280305,-123.121396,"900 Granville Street<br>Vancouver, BC V6Z 1L2<br>(604) 608-1903"
49.281938,-123.12074,"788 Robson Street<br>Vancouver, BC V6Z 1A1<br>(604) 684-8832"
49.285953,-123.120287,"1055 Dunsmuir Street<br>Vancouver, BC V7X 1L3<br>(604) 689-3452"
49.273345,-123.120217,"125 Davie Street<br>Vancouver, BC V6Z 2Y1<br>(604) 609-7717"
49.263271,-123.119491,"682 West Broadway<br>Vancouver, BC V5Z 1G1<br>(604) 708-0030"
49.233699,-123.119338,"650 West 41st Avenue<br>Vancouver, BC V5Z 2M8<br>(604) 261-4698"
49.233699,-123.119338,"650 W 41st Ave<br>Vancouver, BC V5Z 2M9<br>(604) 263-2575"
49.276893,-123.118633,"977 Mainland Street<br>Vancouver, BC V6B 1T2<br>(604) 609-7075"
49.282241,-123.118482,"720 Granville St<br>Vancouver, BC V6Z 1E4<br>(604) 633-9801"
49.284813,-123.118185,"885 Dunsmuir Street<br>Vancouver, BC V6C 1N5<br>(604) 688-9098"
49.28247,-123.118157,"701 Granville St.<br>Vancouver, BC V7B 4E5"
49.280094,-123.117874,"498 Robson Street<br>Vancouver, BC V6B 2B5<br>(604) 642-5300"
49.288096,-123.117675,"150-1067 West Cordova<br>Vancouver, BC V6C 1C7<br>(604) 605-3144"
48.079732,-123.117002,"680F W Washington<br>Sequim, WA 98382<br>(360) 681-2905"
49.279458,-123.116887,"398 Robson Street<br>Vancouver, BC V6B 6M3<br>(604) 687-1187"
44.040495,-123.116583,"1675 W. 18th & Chambers<br>Eugene, OR 97402<br>(541) 485-7027"
49.283497,-123.116565,"610 Granville Street<br>Vancouver, BC V6C 3T3"
49.260434,-123.11646,"555 W 12th Ave<br>Vancouver, BC V5Z 3X7<br>(604) 872-1201"
49.235339,-123.115981,"5504 Cambie Street<br>Vancouver, BC V5Z 3A2<br>(604) 321-1042"
49.288095,-123.115477,"200 Burrard St<br>Vancouver, BC V6C 3L5<br>(604) 682-0721"
49.28298,-123.115423,"600 Dunsmuir Street<br>Vancouver, BC V6B 1Y6<br>(604) 608-1845"
49.254048,-123.115183,"3492 Cambie Street<br>Vancouver, BC V5Z 2W8<br>(604) 872-3911"
49.263192,-123.114951,"500 West Broadway<br>Vancouver, BC V5Z 1E9<br>(604) 872-5666"
49.27696,-123.1149,"858 Beatty Street<br>Vancouver, BC V6B 1C2<br>(604) 685-2310"
49.284649,-123.11487,"700 W Pender St<br>Vancouver, BC V6C 1G8<br>(604) 685-7373"
49.264287,-123.114727,"2378 Cambie Street<br>Vancouver, BC V5Z 2T8<br>(604) 873-4199"
44.644066,-123.11343,"633 Hickory St NW<br>Albany, OR 97321<br>(541) 928-6399"
49.284463,-123.113194,"433 Seymour St<br>Vancouver, BC V6B 3H5<br>(604) 682-2817"
49.267174,-123.112741,"2035 Yukon St<br>Vancouver, BC V5Y 3W3<br>(604) 708-1507"
49.288285,-123.112611,"999 Canada Place<br>Vancouver, BC V6C 3B5<br>(604) 696-9909"
49.285342,-123.111848,"601 West Cordova<br>Vancouver, BC V6B 1G1<br>(604) 685-3758"
49.323886,-123.11033,"1290 Marine Drive<br>North Vancouver, BC V7P 1T2<br>(604) 987-1191"
49.225796,-123.108418,"100 W 49th Ave<br>Vancouver, BC v5y 2z6"
49.279719,-123.107603,"99 Keefer Pl<br>Vancouver, BC V6B 6N5<br>(604) 687-6116"
49.284111,-123.107601,"199 Water Street<br>Vancouver, BC V6B 1A7<br>(604) 669-6297"
49.263071,-123.107122,"1-111 West Broadway<br>Vancouver, BC V5Y 1P4<br>(604) 874-6883"
47.214201,-123.106003,"600 Franklin Street<br>Shelton, WA 98584<br>(360) 426-9978"
44.069146,-123.103425,"1079A Valley River Way<br>Eugene, OR 97401<br>(541) 683-7474"
49.323822,-123.103092,"1025 Marine Drive<br>North Vancouver, BC V7P 1S6<br>(604) 990-9009"
49.337818,-123.102442,"3127 Edgemont Boulevard<br>North Vancouver, BC V7R 2N7<br>(604) 985-8750"
49.260187,-123.10118,"2801 Main Street<br>Vancouver, BC V5T 3G1<br>(604) 872-5717"
49.258617,-123.101099,"2980 Main Street<br>Vancouver, BC V5T 3G3<br>(604) 873-5176"
49.27292,-123.100121,"1395 Main Street<br>Vancouver, BC V6A 4B6<br>(604) 602-1783"
44.051831,-123.099843,"472 West 7th Avenue<br>Eugene, OR 97401<br>(541) 684-0984"
49.277408,-123.09972,"840 Main St<br>West Vancouver, BC V7T 2Z3<br>(604) 925-6630"
49.322696,-123.099141,"400  935 Marine Drive<br>North Vancouver, BC V7P 1S3<br>(604) 986-6206"
49.370837,-123.099133,"6400 Nancy Green Way<br>Vancouver, BC V7R 4K9<br>(604) 984-0661"
49.262857,-123.098682,"311 E Broadway<br>Vancouver, BC V5T 1W5<br>(604) 875-6337"
44.094913,-123.096673,"3003 N Delta Hwy<br>Eugene, OR 97408<br>(541) 338-0233"
45.520197,-123.095991,"2836 Pacific Ave<br>Forest Grove, OR 97116<br>(503) 359-8700"
49.133304,-123.095273,"11660-11688 Steveston Hwy<br>Richmond, BC V7A 1N6<br>(604) 241-5900"
49.030186,-123.093947,"1 Ferry Causeway c/o BC Ferry Terminal<br>Delta, BC V4M 4G5<br>(604) 943-6438"
49.225039,-123.090642,"6544 Fraser<br>Vancouver, BC V5X 3T3<br>(604) 322-6773"
44.04059,-123.090456,"145 East 18th St<br>Eugene, OR 97401<br>(541) 485-3664"
44.049889,-123.089661,"901 Pearl Street<br>Eugene, OR 97401<br>(541) 338-7951"
44.040259,-123.089294,"205 E. 18th Street<br>Eugene, OR 97401<br>(541) 465-9813"
49.333318,-123.088221,"2601 Westview Dr<br>North Vancouver, BC V7N 3X4"
44.011399,-123.087929,"350 E 40th Ave<br>Eugene, OR 97405<br>(541) 342-4067"
49.270796,-123.087677,"753 Terminal Avenue<br>Vancouver, BC V6A 2M2<br>(604) 696-6410"
49.090153,-123.086972,"5275 48 Ave<br>Delta, BC V4K 1W4"
49.282916,-123.086356,"850 Powell Street<br>Vancouver, BC V6A 1H8<br>(604) 215-0711"
49.191987,-123.084203,"12571 Bridgeport Rd<br>Richmond, BC V6V 1J4<br>(604) 279-9328"
49.31071,-123.083696,"145 Chadwick Court<br>North Vancouver, BC V7M 3K1<br>(604) 924-0301"
49.280062,-123.081347,"1095 Pender Street<br>Vancouver, BC V6E 2M6<br>(604) 662-4773"
44.628749,-123.081096,"1990 14th Ave SE<br>Albany, OR 97321<br>(541) 812-2380"
49.311433,-123.080282,"131 W. Esplanade<br>North Vancouver, BC V7M 1A1<br>(604) 986-3797"
44.045717,-123.079941,"801 E. 13th Avenue<br>Eugene, OR 97403<br>(541) 338-4100"
49.090247,-123.077755,"5263 B Ladner Trunk Rd<br>Delta, BC V4K 1W6<br>(604) 940-8394"
49.313226,-123.077262,"273 Lonsdale Ave<br>North Vancouver, BC V7M 2E9<br>(604) 904-8681"
44.632422,-123.075109,"2504 Santian Hwy<br>Albany, OR 97322<br>(541) 812-2221"
44.066785,-123.074967,"65 Oakway Center<br>Eugene, OR 97401<br>(541) 345-9272"
44.064833,-123.074062,"311 Coburg Rd<br>Eugene, OR 97401-6109<br>(541) 342-7635"
49.320208,-123.072391,"1323 Lonsdaled Avenue<br>North Vancouver, BC V7M 2H7<br>(604) 983-0976"
49.324155,-123.07229,"1701 Lonsdale Avenue<br>North Vancouver, BC V7M 2J6<br>(604) 904-9480"
49.335796,-123.072031,"2925 Lonsdale Avenue<br>North Vancouver, BC V7N 3J3<br>(604) 984-7969"
44.078015,-123.070171,"1500 Coburg Rd<br>Eugene, OR 97401<br>(541) 485-8658"
49.262168,-123.069821,"2517 Commercial Drive<br>Vancouver, BC V5N 4C1<br>(604) 875-6065"
49.269117,-123.069655,"1752 Commercial Drive<br>Vancouver, BC V5N 4A3<br>(604) 251-5397"
49.028023,-123.068791,"1359 56th Street<br>Tsawwassen, BC V4L 2A6<br>(604) 943-9668"
49.023654,-123.068765,"1143 56th St<br>Tsawwassen, BC V4L 2A2<br>(604) 948-9255"
49.262297,-123.068386,"1780 E Broadway<br>Vancouver, BC V5N 1W3"
44.938422,-123.06276,"1455 Edgewater St NW<br>Salem, OR 97304<br>(503) 365-2170"
49.248104,-123.058063,"890 West 25 Avenue<br>Vancouver, BC V5Z 2E2"
49.28118,-123.053773,"2531 E Hastings<br>Vancouver, BC V5K 1Z2<br>(604) 253-2055"
49.224805,-123.052511,"2685 E 49th Avenue<br>Vancouver, BC V5S 1J9<br>(604) 451-9051"
43.79729,-123.052454,"1500 E Main Street<br>Cottage Grove, OR 97424<br>(541) 642-3413"
44.950721,-123.051676,"1124 Wallace Rd NW<br>Salem, OR 97304<br>(503) 362-2119"
45.520092,-123.0501,"1882 East Baseline Street<br>Cornelias, OR 97113<br>(503) 357-6858"
49.28117,-123.046793,"2795 East Hastings St<br>Vancouver, BC V5K 1Z8<br>(604) 215-2424"
44.906214,-123.043451,"3405 Commercial St NE<br>Salem, OR 97302<br>(503) 391-7193"
44.073978,-123.042457,"3348 Gateway Street<br>Springfield, OR 97477<br>(541) 726-2763"
49.220053,-123.04127,"7010 Kerr Street<br>Vancouver, BC V5S 4W2<br>(604) 439-9555"
44.905834,-123.041252,"3450 Commercial St SE<br>Salem, OR 97302-4682<br>(503) 585-7322"
49.308636,-123.040498,"333 Brooksbank Ave.<br>North Vancouver, BC V7J 2S8<br>(604) 986-4255"
44.938664,-123.040037,"285 Liberty Street SE<br>Salem, OR 97301<br>(503) 587-9593"
44.941415,-123.038342,"399 Court Street NE<br>Salem, OR 97308<br>(503) 375-2156"
44.899834,-123.038337,"3904 Commercial Street SE<br>Salem, OR 97302<br>(503) 363-0172"
49.336166,-123.037883,"2990 Mountain Highway<br>North Vancouver, BC V7J 3H2<br>(604) 986-6153"
49.306462,-123.037272,"1331 Main Street<br>North Vancouver, BC V7J 3J7<br>(604) 929-6047"
49.232338,-123.032482,"3410 Kingsway Street<br>Vancouver, BC V5R 5L4<br>(604) 493-0090"
44.964419,-123.031988,"2505 Liberty St. NE<br>Salem, OR 97301<br>(503) 566-6885"
49.258582,-123.031982,"2840 Bentall Street<br>Vancouver, BC V5M 4H4<br>(604) 434-7114"
49.232086,-123.031073,"3451 Kingsway<br>Vancouver, BC V5R 5L3<br>(604) 435-4770"
44.997755,-123.027981,"5001 River Road North<br>Keizer, OR 97303<br>(503) 463-6570"
44.94068,-123.024395,"1265 Center St<br>Salem, OR 97301<br>(503) 566-5540"
49.232326,-123.024298,"3665 Kingsway<br>Vancouver, BC V5R 5W2<br>(604) 431-7535"
45.0041,-123.0242,"2555 Jorie Lane NE<br>Keizer, OR 97307<br>(503) 463-1044"
44.063064,-123.02406,"1891 Pioneer Pkwy E<br>Springfield, OR 97477<br>(541) 747-0715"
44.996253,-123.023849,"4990 River Rd N<br>Keizer, OR 97303<br>(503) 390-8810"
44.873003,-123.0227,"5660 Commercial St SE<br>Salem, OR 97302<br>(503) 364-4192"
49.264468,-123.013851,"4122 Dawson Street<br>Burnaby, BC V5C 0A4<br>(604) 299-2820"
49.281059,-123.011656,"4191 Hastings Street<br>Burnaby, BC V5C 2J3<br>(604) 293-1366"
38.783593,-123.011184,"1198 A S. Cloverdale Blvd.<br>Cloverdale, CA 95425<br>(707) 894-4637"
46.789152,-123.009896,"20500 Old Hwy 99 SW<br>Centralia, WA 98531<br>(360) 407-0021"
49.256304,-123.007774,"4331 Dominion St<br>Vancouver, BC V5G 1C7<br>(604) 453-0750"
49.281007,-123.004754,"4440 E Hastings St<br>Burnaby, BC V5C 2K1<br>(604) 205-6922"
38.501956,-123.000424,"16405 River Rd<br>Guerneville, CA 95446<br>(707) 869-9433"
49.266413,-123.000044,"4567 Lougheed Highway<br>Burnaby, BC V5C 3Z6<br>(604) 205-9321"
49.266413,-123.000044,"4567 Lougheed Highway<br>Burnaby, BC V5C 3Z6<br>(604) 294-0295"
49.228531,-123.000018,"4680 Kingsway<br>Burnaby, BC V5H 4L9<br>(604) 431-6787"
49.228302,-122.999374,"4700 Kingsway<br>Burnaby, BC V5H 4M1<br>(604) 431-9996"
49.228302,-122.999374,"4700 Kingsway<br>Burnaby, BC V5H 4M1<br>(604) 436-2500"
44.061048,-122.998385,"1661 Mohawk Blvd.<br>Springfield, OR 97477<br>(541) 726-6530"
49.207475,-122.996729,"7585 Market Crossing<br>Burnaby, BC V5J 0A3<br>(604) 456-0250"
49.227344,-122.996387,"4800 Kingsway<br>Burnaby, BC V5H 4J2<br>(604) 430-4166"
49.227128,-122.995159,"4847 Kingsway Ave<br>Burnaby, BC V5H 4T6<br>(604) 431-8615"
45.012164,-122.994551,"6450 NE Keizer Station Blvd<br>Keizer, OR 97303<br>(503) 856-0610"
50.094226,-122.991619,"227-2055 Lake Placid Rd<br>Whistler, BC VON IB4<br>(604) 935-5815"
45.522022,-122.989051,"102 E. Main St.<br>Hillsboro, OR 97123<br>(503) 846-9299"
44.968621,-122.983465,"3270 Lancaster Dr. NE<br>Salem, OR 97305<br>(503) 391-7334"
44.941296,-122.983167,"831 Lancaster Dr NE<br>Salem, OR 97301<br>(503) 763-2807"
44.944548,-122.982734,"1134 Lancaster Drive NE<br>Salem, OR 97301<br>(503) 375-3606"
44.968846,-122.98222,"3380 Lancaster Dr NE<br>Salem, OR 97303<br>(503) 399-1502"
46.72859,-122.981297,"1161 Harrison Ave.<br>Centralia, WA 98531<br>(360) 807-8801"
49.263385,-122.981245,"2201 Holdom Avenue<br>Burnaby, BC V5B 0A2<br>(604) 294-9552"
46.727935,-122.980735,"1129 Harrison<br>Centralia, WA 98521<br>(360) 330-0884"
49.199531,-122.978598,"5761 Marine Way<br>Burnaby, BC V5J 0A6<br>(604) 454-1065"
46.674816,-122.97821,"1531 NW Louisiana Ave<br>Chehalis, WA 98532<br>(360) 740-9140"
45.520809,-122.974324,"215 SE 10th Avenue<br>Hillsboro, OR 97123-4237<br>(503) 648-5465"
49.317126,-122.969051,"1175 Mt Seymour Road<br>North Vancouver, BC V7H 2Y4"
49.28034,-122.967881,"6564 East Hastings St<br>Burnaby, BC V5B 1S2"
49.28034,-122.967752,"6568 Hastings Street<br>Burnaby, BC V5B 1S2<br>(604) 205-9044"
46.148668,-122.964327,"3184 Ocean Beach Hwy<br>Longview, WA 98632<br>(360) 636-1010"
46.148388,-122.960564,"2930 Ocean Beach Hwy<br>Longview, WA 98632<br>(360) 575-6240"
45.512844,-122.956912,"888 NE 25th Ave<br>Hillsboro, OR 97124<br>(503) 681-8927"
49.218442,-122.956281,"7155 Kingsway<br>Burnaby, BC V5E 2V1<br>(604) 527-0464"
50.12035,-122.956205,"4340 Lorimer Road<br>Whistler, BC V0N 1B4<br>(604) 905-0833"
50.11419,-122.95576,"4229 Village Stroll<br>Whistler, BC V0N 1B4<br>(604) 905-5560"
45.529837,-122.955334,"880 NE 25th Ave<br>Hillsboro, OR 97124<br>(503) 640-4659"
50.115231,-122.953832,"4295 Blackcomb Way<br>Whistler, BC V0N 1B4<br>(604) 938-0611"
46.654895,-122.953825,"1100 S Market Blvd<br>Chehalis, WA 98532<br>(360) 748-3777"
49.306245,-122.953131,"391 North Dollarton<br>North Vancouver, BC V7G 1M9<br>(604) 929-5962"
46.116774,-122.949709,"94 Oregon Way<br>Longview, WA 98632<br>(360) 423-0235"
49.190867,-122.946674,"805 Boyd St<br>New Westminster, BC V3M 5X2<br>(604) 523-9278"
45.30589,-122.944244,"3300 Portland Road Suite 100<br>Newberg, OR 97132<br>(503) 537-1358"
47.047906,-122.94255,"315 Cooper Point Road NW<br>Olympia, WA 98502<br>(360) 352-5616"
47.046053,-122.94229,"3215 Harrison Ave<br>Olympia, WA 98502<br>(360) 956-3782"
47.056769,-122.941218,"1313 Cooper Point Road<br>Olympia, WA 98502<br>(360) 352-8515"
46.136608,-122.938506,"1227 15th Ave<br>Longview, WA 98632<br>(360) 575-6600"
45.533739,-122.935354,"1221 NE 48th Ave<br>Hillsboro, OR 97124<br>(503) 693-1239"
44.045674,-122.934321,"5415 Main Street<br>Springfield, OR 97477<br>(541) 736-3400"
47.042493,-122.934265,"625 Black Lake Boulevard<br>Olympia, WA 98502<br>(360) 754-0121"
40.725608,-122.933064,"1665 Main St<br>Weaverville, CA 96093<br>(530) 623-2494"
46.146328,-122.92838,"1015 Ocean Beach Hwy<br>Longview, WA 98632<br>(360) 414-7042"
49.21906,-122.927714,"7892 6th Street<br>Burnaby, BC V3N 3N3<br>(604) 521-4642"
46.146382,-122.926316,"808 Ocean Beach Hwy<br>Longview, WA 98632<br>(360) 423-3035"
39.048338,-122.925271,"1071 11th Street<br>Lakeport, CA 95453<br>(707) 263-8072"
45.533869,-122.920852,"6221 NE Cornell Rd<br>Hillsboro, OR 97124<br>(503) 640-0740"
49.213059,-122.920487,"610 6th St<br>New Westminster, BC V3L 3C2<br>(604) 520-5937"
49.21347,-122.919788,"555 6th Street<br>New Westminster, BC V3L 5H1<br>(604) 520-6011"
46.998251,-122.915284,"555 Trosper Rd SW<br>Tumwater, WA 98501<br>(360) 753-7900"
49.222979,-122.914782,"800 McBride Blvd.<br>New Westminster, BC V3L 2B8<br>(604) 525-5277"
49.222979,-122.914782,"800 McBride Boulevard<br>New Westminster, BC V3L 2B8"
46.999905,-122.91466,"5312 Little Rock Road SW<br>Tumwater, WA 98512<br>(360) 352-4340"
46.999357,-122.908064,"5300 Capitol Blvd SE<br>Tumwater, WA 98501<br>(360) 352-3429"
49.20323,-122.907854,"601 Columbia<br>New Westminster, BC V3M 1A7<br>(604) 527-7978"
44.526767,-122.907033,"1983 S Santiem Hwy<br>Lebanon, OR 97355<br>(541) 259-5700"
45.4978,-122.9058,"6495 SE Tualatin Valley Hwy<br>Tualatin, OR 97123<br>(503) 848-4550"
45.498121,-122.905446,"2995 SE 75th Ave.<br>Hillsboro, OR 97123<br>(503) 649-3561"
45.550216,-122.904293,"22055 NW Imbrie Drive<br>Hillsboro, OR 97124<br>(503) 693-8831"
45.551213,-122.902186,"22075 NW Imbrie Dr.<br>Hillsboro, OR 97229<br>(503) 747-1100"
46.141529,-122.902074,"411 Three Rivers Drive<br>Kelso, WA 98626"
47.04379,-122.90128,"530 Capital Way South<br>Olympia, WA 98501<br>(360) 753-7771"
45.537977,-122.900247,"7399 NE Butler St.<br>Hillsboro, OR 97124<br>(503) 640-5067"
47.018673,-122.8984,"520 Cleveland<br>Tumwater, WA 98501<br>(360) 943-1830"
49.251182,-122.89547,"9855 Austin Avenue<br>Burnaby, BC V3J 1N4<br>(604) 415-5336"
49.251182,-122.89547,"9855 Austin Rd<br>Burnaby, BC V3J 1N4<br>(604) 420-3420"
49.228505,-122.892841,"411 East Columbia Street<br>New Westminster, BC V3L 3X3<br>(604) 522-7573"
45.4009,-122.8924,"14600 SW Murray Scholls Dr<br>Beaverton, OR 97007-9712<br>(503) 590-7886"
49.119407,-122.89051,"6401 120 St<br>Delta, BC V4E 3G3"
49.120895,-122.890501,"6483 120th St<br>Delta, BC V4E 3G5<br>(604) 598-1112"
49.134486,-122.890435,"7221 120th St<br>Delta, BC V4C 6P5<br>(604) 543-9797"
49.138651,-122.890277,"7450 120 St<br>Surrey, BC V3W 3M9<br>(604) 594-7341"
49.162053,-122.889237,"12025 Nordel Way<br>Surrey, BC V3W 1W1<br>(604) 591-5449"
49.13413,-122.887554,"12101 72nd Avenue<br>Surrey, BC V3W 2M1<br>(604) 502-7188"
45.152734,-122.882845,"111 Arney Road NE<br>Woodburn, OR 97071<br>(503) 981-1758"
47.4369,-122.8788,"23965 NE SR3<br>Belfair, WA 98528<br>(360) 275-0939"
42.343334,-122.877739,"1600 North Riverside  Ste 2072<br>Medford, OR 97501<br>(541) 608-7441"
45.535052,-122.876906,"2002 NW Stucki Avenue<br>Hillsboro, OR 97124<br>(503) 645-5029"
47.046459,-122.874974,"1908 East 4th Ave.<br>Olympia, WA 98506<br>(219) 239-2105"
49.311329,-122.874784,"176 Brew St<br>Port Moody, BC V3H 0E7<br>(604) 461-3922"
45.540434,-122.874174,"18320 NW Evergreen Pkwy<br>Aloha, OR 97006<br>(503) 629-4911"
38.609086,-122.873638,"1115 Vine<br>Healdsburg, CA 95448<br>(707) 431-7102"
42.34359,-122.872794,"1408 Biddle Rd<br>Medford, OR 97501<br>(541) 732-1970"
42.352662,-122.872476,"2424 Crater Lake Highway<br>Medford, OR 97504<br>(541) 779-6158"
38.609163,-122.871805,"1075 Vine Street<br>Healdsburg, CA 95448<br>(707) 431-0509"
45.535498,-122.867533,"2177 NW 185th<br>Hillsboro, OR 97124<br>(503) 645-6631"
49.032354,-122.867522,"1658 128th Street<br>Surrey, BC V4A 3V3<br>(604) 531-2663"
42.33179,-122.867485,"1003 Medford Ctr<br>Medford, OR 97504<br>(541) 608-3680"
49.177085,-122.866896,"12840 96th Avenue<br>Surrey, BC V3V 6A8<br>(604) 582-2974"
45.53921,-122.866826,"2711 NW Town Center Dr. #1<br>Beaverton, OR 97006-8951<br>(503) 617-4586"
45.55877,-122.866657,"18425 NW West Union Rd<br>Portland, OR 97229<br>(503) 533-5998"
49.276729,-122.860162,"2350 St Johns S<br>Port Moody, BC V3H 2A9<br>(604) 939-5755"
45.478841,-122.859617,"17675 SW Farmington Rd<br>Aloha, OR 97007<br>(503) 649-8597"
42.362186,-122.858174,"3169 Crater Lake Hwy<br>Medford, OR 97501<br>(541) 774-4340"
42.36011,-122.85743,"1730 Delta Waters Rd<br>Medford, OR 97504<br>(541) 773-5746"
42.313096,-122.856829,"1303 Center Dr<br>Medford, OR 97501<br>(541) 772-8885"
45.3531,-122.8554,"21365 SW Baler Way<br>Sherwood, OR 97140<br>(503) 610-6000"
45.352059,-122.85529,"20685 Roy Rodgers Rd<br>Sherwood, OR 97140<br>(503) 625-4760"
45.3529,-122.853294,"20685 Roy Rodgers Rd<br>Sherwood, OR 97140<br>(503) 625-4760"
49.187011,-122.845553,"10153 King George Hwy<br>Surrey, BC V3T 2W1<br>(604) 584-9372"
49.190915,-122.845505,"10355 King George Hwy<br>Surrey, BC V3T 2W6"
49.13637,-122.845463,"7380 King George Highway<br>Surrey, BC V3W 5A5<br>(604) 597-8892"
49.190903,-122.845247,"10362 King George Highway<br>Surrey, BC V3T 2W5<br>(604) 581-2632"
47.043135,-122.845214,"3520 Pacific Ave SE<br>Olympia, WA 98501<br>(360) 459-9340"
45.3611,-122.8436,"20661 SW Roy Rogers Rd<br>Sherwood, OR 97140-9277<br>(503) 925-9262"
45.369717,-122.842906,"16030 SW Tualitin Sherwood Rd<br>Sherwood, OR 97140<br>(503) 625-9581"
45.517425,-122.841557,"16005 S.W. Walker Road<br>Beaverton, OR 97006-4944<br>(503) 533-9216"
49.132871,-122.838732,"7165 138 Street<br>Surrey, BC V3W 7T9"
49.263326,-122.837551,"1980A Como Lake Avenue<br>Coquitlam, BC V3J 3R3<br>(604) 937-7781"
45.554963,-122.836697,"4756 NW Bethany Blvd<br>Portland, OR 97229<br>(503) 533-0552"
45.553667,-122.835497,"4708 NW Bethany Blvd<br>Portland, OR 97229<br>(503) 533-2233"
47.041145,-122.833556,"700 Sleater-Kinney Road SE<br>Lacey, WA 98503<br>(360) 491-8247"
45.849495,-122.831987,"795 Columbia River Hwy<br>St. Helens, OR 97051<br>(503) 397-2630"
45.150965,-122.831558,"1550 N Pacific Hwy<br>Woodburn, OR 97071<br>(503) 982-2756"
47.049352,-122.831345,"4230 Martin Way E<br>Olympia, WA 98516<br>(360) 456-7132"
47.040402,-122.831186,"700 Sleater-Kinney Road SE<br>Lacey, WA 98503<br>(360) 438-6450"
45.848487,-122.830425,"2298 Gable Rd  Suite 130<br>St Helens, OR 97051<br>(503) 397-1259"
47.048495,-122.830415,"4250 Martin Way<br>Olympia, WA 98516<br>(360) 923-5910"
49.282297,-122.827803,"330-221 Ioco Road<br>Port Moody, BC V3H 4H2<br>(604) 469-3318"
47.452387,-122.827236,"NE 201 State Route 300<br>Belfair, WA 98528<br>(360) 275-2050"
38.404706,-122.826666,"406 N. Main St.<br>Sebastopol, CA 95472<br>(707) 823-1101"
45.440707,-122.825901,"14555 SW Teal Blvd<br>Beaverton, OR 97224<br>(503) 590-9755"
45.475325,-122.825358,"6194 SW Murray Blvd<br>Beaverton, OR 97005"
46.999036,-122.824336,"4700 AVERY LANE SE<br>LACEY, WA 98503<br>(360) 491-8927"
45.43151,-122.824051,"14300 SW Barrows Rd<br>Tigard, OR 97223<br>(541) 746-1653"
46.997581,-122.822163,"4700 Yelm Rd SE<br>Lacey, WA 98503<br>(360) 438-0203"
49.249069,-122.817822,"2662 Austin Avenue<br>Coquitlam, BC V3K 6C4<br>(604) 931-2115"
38.391871,-122.817394,"962 Gravenstein Hwy S<br>Sebastopol, CA 95472<br>(707) 829-5029"
45.527596,-122.81438,"13485 NW Cornell Rd<br>Portland, OR 97225<br>(503) 350-2080"
49.061324,-122.812928,"3288 King George Hwy<br>Surrey, BC V4P 1A5<br>(604) 531-8535"
38.5483,-122.8128,"1001 McCleland Dr<br>Windsor, CA 95492<br>(707) 837-0432"
45.493568,-122.810398,"3590 Cedar Hills Boulevard<br>Beaverton, OR 97005<br>(503) 641-1504"
49.283741,-122.809302,"1192 Lansdowne Drive<br>Coquitlam, BC V3E 1J7<br>(604) 464-1408"
47.051146,-122.809282,"5600 Martin Way<br>Lacey, WA 98516<br>(360) 459-9285"
45.496729,-122.808671,"3205 SW Cedar Hills Blvd.<br>Beaverton, OR 97005<br>(503) 626-5233"
45.525802,-122.807393,"12675 NW Cornell Rd<br>Portland, OR 97229"
38.562027,-122.805852,"9080 Brooks Rd<br>Windsor, CA 95492<br>(707) 837-2000"
38.549708,-122.805843,"8786 Lakewood Drive<br>Windsor, CA 95492<br>(707) 838-9875"
45.443166,-122.805492,"12700 SW Dakota<br>Tigard, OR 97223<br>(503) 579-2333"
49.296991,-122.802906,"1410 Parkway Blvd<br>Coquitlam, BC V3E 3J7<br>(604) 552-8449"
45.4872,-122.8025,"1400 SW Karl Braun Dr<br>Beaverton, OR 97077<br>(503) 627-6921"
49.190128,-122.802395,"2695 Guildford Town Ctr<br>Surrey, BC V3R 7C1<br>(604) 930-2277"
49.104479,-122.801978,"15161 #10 Hwy<br>Surrey, BC V3S 9A5<br>(604) 574-0664"
49.163634,-122.80131,"8860 152 St<br>Surrey, BC V3R 4E4<br>(604) 589-4774"
49.1641,-122.801303,"8898 152nd Street<br>Surrey, BC V3R 4E4<br>(604) 951-9373"
49.056871,-122.801266,"3061 152nd Street<br>Surrey, BC V4P 3K1<br>(604) 542-5417"
49.050049,-122.801229,"2670 152nd St<br>Surrey, BC V4P 1M8<br>(604) 531-7641"
49.033499,-122.801115,"1730 152nd Street<br>South Surrey, BC V4A 4N4<br>(604) 541-1170"
49.187444,-122.800823,"10174 - 152nd Street<br>Surrey, BC V3S 8E7<br>(604) 951-6633"
49.276908,-122.799364,"2600-2929 Barnet Highway<br>Coquitlam, BC V3B 5R5<br>(604) 468-7891"
45.489975,-122.797756,"4037 SW 117th Avenue<br>Beaverton, OR 97005<br>(503) 520-8889"
49.046054,-122.796807,"15355 24 Ave<br>Surrey, BC V4A 2H9<br>(604) 535-8960"
49.046054,-122.796807,"15355 24th Avenue<br>Surrey, BC V4A 2H9<br>(604) 531-0774"
49.275701,-122.795493,"2991 Lougheed Hwy<br>Coquitlam, BC V3B 6J6<br>(604) 944-6848"
49.275701,-122.795493,"2991 Lougheed Highway<br>Coquitlam, BC V3B 6J6<br>(604) 944-8032"
45.406846,-122.795378,"15570 SW Pacific Hwy<br>Tigard, OR 97233<br>(503) 598-6001"
45.403249,-122.79532,"16200 SW Pacific Hwy<br>Tigard, OR 97224<br>(503) 684-5070"
44.806549,-122.794315,"1535 N 1st Ave<br>Stayton, OR 97383<br>(503) 769-4814"
45.48655,-122.793799,"11405 SW Beaverton-Hillsdale Hwy<br>Beaverton, OR 97005<br>(503) 626-6549"
45.003145,-122.793409,"301 Westfield St<br>Silverton, OR 97381<br>(503) 873-1800"
45.515917,-122.790763,"11070-C SW Barnes Rd<br>Portland, OR 97255<br>(503) 646-9676"
45.459629,-122.789322,"8400 SW Nimbus Ave<br>Beaverton, OR 97008<br>(503) 644-8215"
45.486547,-122.787423,"10775 SW Beaverton-Hillsdale Hwy<br>Beaverton, OR 97005<br>(503) 626-8345"
45.421906,-122.784111,"13560 SW Pacific Hwy<br>Tigard, OR 97223<br>(503) 598-0638"
45.451483,-122.783337,"9467 SW Washington Square Road<br>Tigard, OR 97223<br>(503) 620-3761"
48.107084,-122.783042,"442 W Sims Way<br>Port Townsend, WA 98368<br>(360) 385-2806"
45.452574,-122.782997,"9359 SW Washington Square Road<br>Tigard, OR 97223<br>(503) 968-9232"
53.910666,-122.782244,"1477 West Central<br>Prince George, BC V2M 5S5<br>(250) 561-2532"
53.919158,-122.782191,"643  West Central Street<br>Prince George, BC V2M 3C6<br>(250) 614-1811"
49.262247,-122.781686,"2564 Shaughnessy Street<br>Port Coquitlam, BC V3C 3G4<br>(604) 552-0674"
38.510233,-122.780615,"269 Aviation Blvd.<br>Santa Rosa, CA 95403<br>(707) 542-5964"
53.89951,-122.780489,"3161 Massey Drive<br>Prince George, BC V2N 2S9<br>(250) 562-4272"
45.537387,-122.779434,"2021 NW Miller Road<br>Portland, OR 97229<br>(503) 297-0142"
49.198779,-122.779071,"101-15976 108th Avenue<br>Surrey, BC V4N 5V6<br>(604) 582-6233"
45.446456,-122.778215,"10218 SW Washington Square Rd.<br>Portland, OR 97223<br>(503) 670-9828"
49.26659,-122.777183,"1100-2850 Shaughnessy St<br>Port Coquitlam, BC V3C 6K5"
49.044914,-122.776674,"2453 161A Street<br>Surrey, BC V3S 0M6<br>(604) 535-7741"
53.868504,-122.776096,"5212 Domano Blvd<br>Prince George, BC V2N 4A1<br>(250) 906-0001"
45.301054,-122.774263,"30299 SW Boones Ferry Rd<br>Wilsonville, OR 97070<br>(503) 582-9741"
45.486446,-122.77309,"9350 SW Beaverton HIllsdale Hwy<br>Beaverton, OR 97005<br>(503) 292-1573"
38.452583,-122.773032,"2547 Guerneville Rd<br>Santa Rosa, CA 95401<br>(707) 544-4256"
49.264297,-122.767144,"2840 Oxford Street<br>Port Coquitlam, BC V3B 5L7<br>(604) 464-0399"
45.382944,-122.766273,"8515 SW Tualatin Sherwood Rd.<br>Tualatin, OR 97062<br>(503) 691-1826"
45.3356,-122.7654,"25600 SW Argyle<br>Wilsonville, OR 97070<br>(503) 582-0215"
47.059767,-122.764703,"1401 Marvin Rd NE<br>Lacey, WA 98516<br>(360) 491-1190"
47.059366,-122.764685,"1243 Marvin Rd NE<br>Olympia, WA 98516<br>(360) 438-3914"
45.381318,-122.763686,"8639 SW Tualatin Sherwood Road<br>Tualatin, OR 97062<br>(503) 691-9448"
45.303013,-122.762068,"8269 SW Wilsonville Rd<br>Wilsonville, OR 97070<br>(503) 582-9569"
45.379908,-122.759057,"19321 SW Martinazzi Ave<br>Tualatin, OR 97062<br>(503) 612-1614"
48.032426,-122.757947,"1890 Irondale Road<br>Port Hadlock, WA 98339<br>(360) 385-1070"
45.485742,-122.756974,"4735 SW 77th Avenue<br>Portland, OR 97225<br>(503) 291-7191"
49.27114,-122.755012,"1470 Prairie Avenue<br>Coquitlam, BC V3B 5M8<br>(604) 945-5177"
45.590164,-122.754597,"8539 N Lombard<br>Portland, OR 97203<br>(503) 289-2310"
45.51566,-122.754443,"7515 SW Barnes Rd<br>Portland, OR 97225<br>(503) 296-9597"
45.515061,-122.753954,"7525 SW Barnes Rd<br>Portland, OR 97225<br>(503) 203-0027"
45.438093,-122.753876,"11636 SW Pacific Highway<br>Tigard, OR 97223<br>(503) 639-0925"
45.588745,-122.752769,"8330 N Ivanhoe St<br>Portland, OR 97203<br>(503) 205-1599"
38.451371,-122.752464,"1791 Marlow Rd<br>Santa Rosa, CA 95401<br>(707) 576-7360"
38.452091,-122.752453,"1799 Marlow Road<br>Santa Rosa, CA 95401<br>(707) 528-3062"
45.465717,-122.752041,"7315 SW Garden Home Road<br>Portland, OR 97225<br>(503) 244-3741"
45.440324,-122.750837,"11565 SW Pacific Hwy<br>Tigard, OR 97223<br>(503) 293-7053"
45.394424,-122.75048,"7118 SW Hazelfern Rd<br>Tigard, OR 97224<br>(503) 620-0563"
38.50005,-122.75017,"4745 Old Redwood Dr<br>Larkfield, CA 95403<br>(707) 576-8796"
45.913349,-122.748336,"1999 Pacific Ave<br>Woodland, WA 98674<br>(360) 225-4709"
45.912234,-122.748319,"1725 Pacific Ave<br>Woodland, WA 98674<br>(360) 225-4370"
45.382792,-122.748029,"7131 Nyberg St.<br>Tualatin, OR 97062<br>(503) 612-6581"
49.256351,-122.747003,"2325 Ottawa Street<br>Port Coquitlam, BC V3B 8A4<br>(604) 552-1671"
45.408698,-122.745752,"15350 SW Sequoia Pkwy<br>Portland, OR 97224<br>(503) 620-7211"
53.914948,-122.743637,"444 George St<br>Prince George, BC V2L 1R6"
45.397256,-122.741762,"17779 SW Lower Boones Ferry Rd<br>Lake Oswego, OR 97035<br>(503) 675-2500"
38.406257,-122.741395,"2780 Stony Point Road<br>Santa Rosa, CA 95407<br>(707) 545-7057"
38.42777,-122.741349,"760 Stony Point Road<br>Santa Rosa, CA 95407<br>(707) 546-5046"
45.420596,-122.738933,"8 Centerpointe Drive<br>Lake Oswego, OR 97035<br>(503) 624-7065"
45.399264,-122.738485,"17449 Boones Ferry Rd<br>Lake Oswego, OR 97035<br>(503) 534-2938"
45.586633,-122.738136,"6850 North Lombard<br>Portland, OR 97203-620<br>(503) 240-2700"
45.417037,-122.737578,"5800 Meadows Rd<br>Lake Oswego, OR 97035<br>(503) 598-9846"
38.479332,-122.73494,"860 Hopper Avenue<br>Santa Rosa, CA 95403<br>(707) 528-3116"
45.509642,-122.734927,"1850 SW Skyline Blvd<br>Portland, OR 97221<br>(503) 292-1691"
49.12001,-122.734908,"6476 176th Street<br>Cloverdale, BC V3S 4G3<br>(604) 574-5106"
45.497759,-122.726991,"5415 S.W. Beav.-Hillsdale Hwy.<br>Portland, OR 97221<br>(503) 246-1713"
49.247198,-122.726379,"3205 Lougheed Hwy.<br>Coquitlam, BC V3B 1C6<br>(250) 941-8212"
49.104226,-122.724766,"17967 56th Avenue<br>Surrey, BC V3S 1E2<br>(604) 576-7828"
45.407899,-122.724353,"16398 SW Boones Ferry Road<br>Lake Oswego, OR 97035<br>(503) 699-3007"
45.409405,-122.722862,"16199 Boones Ferry Rd.<br>Lake Oswego, OR 97035<br>(503) 635-3429"
45.452901,-122.722086,"10010 S.W. Barbur Blvd.<br>Portland, OR 97219<br>(503) 244-9884"
38.346911,-122.720323,"475 Rohnert Park Expy W<br>Rohnert Park, CA 94928-7907<br>(707) 586-2901"
38.348686,-122.720245,"459 Rohnert Park Expressway W<br>Rohnert Park, CA 94928<br>(707) 206-0772"
38.461256,-122.717211,"2210 Mendocino Ave<br>Santa Rosa, CA 95403<br>(707) 569-3100"
38.462006,-122.717094,"2240 Mendocino Avenue<br>Santa Rosa, CA 95403<br>(707) 576-7582"
47.7084,-122.7143,"2600 Ohio Street<br>Silverdale, WA 98315-505<br>(360) 779-6894"
42.196284,-122.713729,"120 East Main Street<br>Ashland, OR 97520<br>(541) 488-1195"
38.412382,-122.712763,"2688 Santa Rosa Ave<br>Santa Rosa, CA 95407<br>(707) 527-1006"
38.440401,-122.711772,"200 D Street<br>Santa Rosa, CA 94504<br>(707) 577-0665"
38.429602,-122.711463,"1071 Santa Rosa Plaza<br>Santa Rosa, CA 95401<br>(707) 569-8457"
45.468641,-122.711426,"7737 SW Capitol Highway<br>Portland, OR 97219<br>(503) 245-1961"
45.54627,-122.711377,"3275 NW 29th Ave<br>Portland, OR 97210<br>(503) 241-4997"
38.41875,-122.710683,"2200 Santa Rosa Avenue<br>Santa Rosa, CA 95404<br>(707) 541-0257"
38.347656,-122.709565,"6340 Commerce Blvd<br>Rohnert Park, CA 94928<br>(707) 584-8942"
38.346972,-122.709547,"6356 Commerce Blvd.<br>Rohnert Park, CA 94928-2404<br>(707) 588-8999"
38.417181,-122.709483,"1980 Santa Rosa Ave<br>Santa Rosa, CA 95407<br>(707) 575-0665"
49.124001,-122.702281,"18737 Fraser Highway<br>Surrey, BC V3S 7Y3<br>(604) 575-7800"
45.433681,-122.702157,"3 Monroe Parkway<br>Lake Oswego, OR 97035<br>(503) 675-9097"
45.5232,-122.698805,"2328 W. Burnside  Suite #2<br>Portland, OR 97210<br>(503) 228-8777"
45.531937,-122.698706,"1301 NW 23rd Ave.<br>Portland, OR 97210<br>(503) 227-2038"
45.527008,-122.698517,"605 NW 23rd<br>Portland, OR 97210<br>(503) 223-1747"
38.328981,-122.697546,"640 E. Cotati Avenue<br>Cotati, CA 94931<br>(707) 794-9016"
45.478212,-122.694593,"6326 SW Capitol Highway<br>Portland, OR 97201<br>(503) 977-3638"
45.530094,-122.694249,"1012 NW 21st Ave<br>Portland, OR 97210<br>(503) 224-9686"
45.523724,-122.693303,"100 NW 20th Place<br>Portland, OR 97209<br>(503) 273-2004"
38.362453,-122.693031,"969 A Golf Course Drive<br>Rohnert Park, CA 94928<br>(707) 584-4818"
45.517577,-122.692002,"1710 SW Jefferson Street<br>Portland, OR 97201<br>(503) 295-9503"
45.522865,-122.691846,"1972 West Burnside St<br>Portland, OR 97209<br>(503) 227-3008"
38.450679,-122.690965,"2751 Fourth St<br>Santa Rosa, CA 95404<br>(707) 522-1455"
49.231171,-122.689981,"19184 Lougheed Hwy<br>Pitt Meadows, BC V3Y 2H6<br>(604) 460-2053"
42.184086,-122.689786,"1474 Siskiyou Blvd<br>Ashland, OR 97520<br>(541) 482-7114"
47.650567,-122.689635,"2890 NW Bucklin Hill Rd<br>Silverdale, WA 98383<br>(360) 692-4488"
45.499287,-122.689059,"700 SW Campus Drive<br>Portland, OR 97201<br>(503) 418-5350"
38.433668,-122.688398,"1511 Farmer's Lane<br>Santa Rosa, CA 95405<br>(707) 546-6920"
47.657499,-122.687098,"10516 Silverdale Way N.W.<br>Silverdale, WA 98383<br>(360) 613-9747"
45.613281,-122.686914,"1718 N Jantzen Beach Center<br>Portland, OR 97217<br>(503) 978-1865"
45.471641,-122.686215,"7421 SW Barbur Boulevard<br>Portland, OR 97219<br>(503) 245-7540"
45.512843,-122.685378,"1717 S.W. Park Ave<br>Portland, OR 97201<br>(503) 241-1281"
45.516165,-122.684896,"1030 SW Jefferson<br>Portland, OR 97201<br>(503) 205-1849"
45.462928,-122.684561,"8510 SW Terwilliger Blvd.<br>Portland, OR 97219<br>(503) 977-9866"
45.530063,-122.68443,"1303 NW Lovejoy St<br>Portland, OR 97209<br>(503) 205-6746"
45.5091,-122.684063,"603 SW Jackson  Suite 116<br>Portland, OR 97201-4975<br>(503) 227-2067"
45.514404,-122.683389,"1440 S.W. Park Avenue<br>Portland, OR 97201<br>(503) 241-4119"
45.525904,-122.682883,"1134 NW Glisan Street<br>Portland, OR 97209<br>(503) 221-7426"
45.53007,-122.682398,"1102 NW Lovejoy Street<br>Portland, OR 97209<br>(503) 227-2724"
45.518437,-122.682,"906 SW Taylor Street<br>Portland, OR 97205<br>(503) 295-0404"
47.651958,-122.681521,"2238 Bucklin Hill Rd NW<br>Silverdale, WA 98383<br>(360) 662-0182"
45.576907,-122.681472,"7404 N Interstate Ave<br>Portland, OR 97217-5528<br>(503) 286-6755"
45.515219,-122.679949,"1211 S.W. 5th Avenue<br>Portland, OR 97204<br>(503) 525-0954"
45.516993,-122.679749,"1009 S.W. 6th Avenue<br>Portland, OR 97205<br>(503) 241-7408"
45.519211,-122.679685,"720 SW Broadway<br>Portland, OR 97205<br>(503) 223-2488"
45.609368,-122.678582,"11919 N Jantzen Ave<br>Portland, OR 97217<br>(503) 285-6233"
45.267491,-122.678541,"1385 SE 1st Ave<br>Canby, OR 97013<br>(503) 266-5356"
45.267554,-122.678403,"1401 SE 1st Street<br>Canby, OR 97013<br>(503) 263-4100"
38.336055,-122.678008,"1716 East Cotati Avenue<br>Rohnert Park, CA 94928<br>(707) 792-0283"
45.52045,-122.677884,"601 SW Washington St<br>Portland, OR 97205<br>(503) 916-8352"
45.513841,-122.677562,"1300 SW Third Avenue<br>Portland, OR 97201<br>(503) 226-7119"
45.518331,-122.677249,"700 SW 5th<br>Portland, OR 97204<br>(503) 223-3066"
45.521661,-122.67669,"555 S.W. Oak Street<br>Portland, OR 97204<br>(503) 226-8286"
45.406633,-122.676408,"1175 McVey Ave.<br>Lake Oswego, OR 97035<br>(503) 675-1334"
45.513284,-122.675478,"1 S.W. Columbia Street<br>Portland, OR 97258<br>(503) 221-6540"
45.516585,-122.675306,"910 SW 2nd Ave<br>Portland, OR 97204<br>(503) 274-0330"
45.52111,-122.675201,"305 SW 4th Avenue<br>Portland, OR 97204<br>(503) 227-0960"
38.458724,-122.674746,"4575 Sonoma Hwy<br>Santa Rosa, CA 95409<br>(707) 539-1010"
45.479956,-122.67288,"6080 SW Macadam<br>Portland, OR 97201<br>(503) 452-1517"
42.186493,-122.670721,"2301 Ashland St<br>Ashland, OR 97520<br>(541) 482-6320"
49.076146,-122.669355,"4064 200th St<br>Langley, BC V3A 1K9<br>(604) 532-1260"
49.114739,-122.66874,"6153 200th St<br>Langley, BC V2Y 1A2"
49.114739,-122.66874,"6153 200th St<br>Langley, BC V2Y 1A2<br>(604) 530-1340"
45.420534,-122.668434,"401 A Avenue<br>Lake Oswego, OR 97034<br>(503) 675-4480"
49.132617,-122.668205,"7150 200th Street<br>Langley, BC V2Y 3B9<br>(604) 539-8513"
49.113482,-122.66812,"20015 Langley Bypass<br>Langley, BC V3A 8R6<br>(604) 514-2315"
38.275945,-122.668065,"5306  C. Old Redwood Highway<br>Petaluma, CA 94954<br>(707) 793-9088"
49.159811,-122.667758,"8660-200th Street<br>Langley, BC V2Y 0B3<br>(604) 455-0515"
38.426196,-122.667033,"2755 Yulupa Avenue<br>Santa Rosa, CA 95404<br>(707) 545-2738"
49.113291,-122.666107,"20090 Langley By-Pass<br>Langley, BC V3A 9J7<br>(604) 539-9300"
49.106755,-122.664018,"20151 Fraser Highway<br>Langley, BC V3A 4E4<br>(604) 533-7015"
45.416134,-122.663218,"47 North State Street<br>Lake Oswego, OR 97034<br>(503) 699-8581"
49.164476,-122.662348,"20159 88th Avenue<br>Langley, BC V1M 0A4<br>(604) 455-0393"
45.533848,-122.661896,"1503 NE MLK<br>Portland, OR 97232-1137<br>(503) 233-3167"
45.530348,-122.661814,"1035 NE MLK Blvd.<br>Portland, OR 97232<br>(503) 234-4141"
45.528473,-122.661719,"777 N.E. Martin Luther King Jr Blvd<br>Portland, OR 97232<br>(503) 731-7851"
45.528473,-122.661719,"777 NE Martin Luther King Jr Blvd<br>Portland, OR 97232<br>(503) 731-7851"
49.22028,-122.661481,"20201 Lougheed Hwy.<br>Maple Ridge, BC V2X 2P6<br>(604) 460-1553"
45.566465,-122.661443,"6003 NE MLK Drive<br>Portland, OR 97211-3156<br>(503) 283-0671"
45.565688,-122.661341,"5920 NE Martin Luther King Blvd<br>Portland, OR 97211<br>(503) 528-0580"
45.527002,-122.661188,"525 NE Grand Avenue<br>Portland, OR 97232-2726<br>(503) 231-2793"
45.534707,-122.660945,"1621 NE Grand Avenue<br>Portland, OR 97232<br>(503) 281-3395"
49.219071,-122.656369,"20395 Lougheed Highway<br>Maple Ridge, BC V2X 2P9<br>(604) 460-7233"
45.528529,-122.65631,"925 Lloyd Center<br>Portland, OR 97232<br>(503) 249-0416"
45.535037,-122.654524,"1100 NE Broadway<br>Portland, OR 97232<br>(503) 528-0500"
45.349519,-122.654512,"1855 Blankenship Rd<br>West Linn, OR 97068<br>(503) 723-9575"
47.497336,-122.653776,"5520 Sidney Road<br>Port Orchard, WA 98367<br>(360) 692-8088"
38.4653,-122.653365,"100 Calistoga Rd<br>Santa Rosa, CA 95409<br>(707) 539-1771"
45.464547,-122.652735,"1305 SE Tacoma Street<br>Portland, OR 97202<br>(503) 234-6020"
47.570111,-122.652732,"900 North Callow<br>Bremerton, WA 98312<br>(360) 792-9149"
45.724044,-122.651814,"14300 NE 20th Avenue<br>Vancouver, WA 98686<br>(360) 576-4448"
45.714724,-122.651348,"12909 NE 99<br>Salmon Creek, WA 98686<br>(360) 566-7980"
45.548307,-122.650422,"3507 N.E. 15th Avenue<br>Portland, OR 97212<br>(503) 249-2874"
45.535022,-122.650368,"1510 NE Broadway<br>Portland, OR 97232<br>(503) 249-0017"
45.473705,-122.64767,"7001 SE Milwaukee Ave<br>Portland, OR 97202<br>(503) 230-9603"
45.368017,-122.647027,"22000 Salamo Rd.<br>West Linn, OR 97068<br>(503) 650-8954"
47.0951,-122.646706,"1125 Center Drive<br>Dupont, WA 98327<br>(253) 964-0764"
45.359697,-122.64606,"22750 Salamo Road<br>West Linn, OR 97068<br>(503) 723-0085"
49.101938,-122.645981,"20831 Fraser Highway<br>Langley, BC V3A 4G7<br>(604) 532-0922"
48.298463,-122.645497,"31565 State Route 20  #1<br>Oak Harbor, WA 98277<br>(360) 679-3011"
49.10155,-122.644955,"20871 Fraser Hwy<br>Langley, BC V3A 4G7"
45.39036,-122.644007,"18750 SW Willamette Dr<br>West Linn, OR 97068<br>(503) 699-0247"
38.234615,-122.640855,"125 Petaluma Blvd N<br>Petaluma, CA 94952<br>(707) 773-3285"
47.741409,-122.64066,"19673 7th Ave NE<br>Poulsbo, WA 98370<br>(360) 779-6500"
38.268081,-122.639362,"701 Sonoma Mountain Pkwy<br>Petaluma, CA 94954<br>(707) 776-4591"
48.311168,-122.638034,"32650 SR 20<br>Oak Harbor, WA 98277<br>(360) 675-0130"
49.163006,-122.637712,"8840 210th Street<br>Langley, BC V1M 2Y2<br>(604) 882-9968"
45.522887,-122.637163,"2803 East Burnside<br>Portland, OR 97214<br>(503) 238-1408"
45.511845,-122.636431,"2800 SE Hawthorne<br>Portland, OR 97214<br>(503) 232-5539"
47.7454,-122.6362,"21505 Market Place NW<br>Poulsbo, WA 98370<br>(360) 779-9939"
45.533105,-122.634892,"3030 NE Weidler<br>Portland, OR 97232<br>(503) 284-9907"
47.517713,-122.631129,"3355 Bethel Rd SE<br>Port Orchard, WA 91360<br>(360) 876-0805"
45.417136,-122.63044,"14620 SE McLoughlin Blvd<br>Milwaukie, OR 97222<br>(503) 659-3653"
47.620787,-122.63032,"1401 NE McWilliams Rd<br>Bremerton, WA 98311<br>(360) 373-8911"
47.503686,-122.629411,"1900 SE Sedgwick Rd<br>Port Orchard, WA 98366"
38.250816,-122.628781,"205 N. McDowell<br>Petaluma, CA 94954<br>(707) 763-2741"
45.444646,-122.628537,"10826 SE Oak Street<br>Milwaukie, OR 97222<br>(503) 652-7962"
47.626555,-122.628361,"7034 St Hwy 303 NE<br>Bremerton, WA 98311<br>(360) 698-7818"
47.518534,-122.627513,"1960 SE Lund St<br>Port Orchard, WA 98366<br>(360) 874-2360"
45.49707,-122.62632,"3623 SE Powell<br>Portland, OR 97202<br>(503) 231-2543"
45.512298,-122.626097,"3639 SE Hawthorne Avenue<br>Portland, OR 97214<br>(503) 234-1757"
47.56372,-122.62523,"80 Washington Avenue<br>Bremerton, WA 98337<br>(360) 373-8105"
45.534946,-122.623284,"1633 NE 39th<br>Portland, OR 97232<br>(503) 287-3565"
45.490515,-122.623154,"4437 SE 39th Ave<br>Portland, OR 97202<br>(503) 771-1552"
47.094927,-122.622891,"1100 Station Drive<br>DuPont, WA 98327<br>(253) 912-9974"
38.247504,-122.622772,"373 S. McDowell Blvd.<br>Petaluma, CA 94954<br>(707) 762-7872"
45.496949,-122.621669,"3940 SE Powell<br>Portland, OR 97202<br>(503) 772-4440"
48.358112,-122.621125,"31239 SR 20<br>Oak Harbor, WA 98227<br>(360) 279-8327"
45.448022,-122.618403,"4300 SE King Rd<br>Milwaukie, OR 97222<br>(503) 708-2613"
45.479837,-122.616455,"4515 SE Woodstock<br>Woodstock, OR 97206<br>(503) 788-7600"
45.526397,-122.616152,"4500 NE Glisan<br>Portland, OR 97213<br>(503) 239-5275"
45.548511,-122.615281,"4633 NE Fremont St<br>Portland, OR 97213<br>(503) 282-0147"
45.366315,-122.612796,"22000 Willamette Drive<br>West Linn, OR 97068<br>(503) 656-7516"
48.50797,-122.612692,"1720 Commercial Avenue<br>Anacortes, WA 98221<br>(360) 588-8801"
48.510017,-122.612655,"1519 Commercial Ave<br>Anacortes, WA 98221<br>(360) 293-3212"
47.545972,-122.612378,"1434 Olney Ave. S. E.<br>Port Orchard, WA 98366<br>(360) 895-2292"
48.512576,-122.611798,"911 11th St<br>Anacortes, WA 98221<br>(360) 293-5393"
47.359604,-122.607794,"5151 Borgen Blvd.<br>Gig Harbor, WA 98332<br>(253) 851-8312"
45.522453,-122.606732,"5544 East Burnside St<br>Portland, OR 97215<br>(503) 963-8220"
47.36094,-122.605051,"11330 51st Ave NW<br>Gig Harbor, WA 98332<br>(253) 853-4750"
38.121898,-122.603576,"127 San Marin Dr<br>Novato, CA 94945<br>(415) 897-5832"
45.667922,-122.603512,"6711 NE 63rd St<br>Vancouver, WA 98661<br>(360) 992-5680"
45.685478,-122.601255,"8720 NE Centerpointe Drive<br>Vancouver, WA 98665<br>(360) 885-4559"
45.368348,-122.599471,"1900 SE McLoughlin Blvd<br>Oregon City, OR 97045<br>(503) 723-2833"
38.233663,-122.598884,"3100 Lakeville Hwy<br>Petaluma, CA 94954<br>(707) 775-3708"
49.220445,-122.595325,"22645 Dewdney Trunk Rd<br>Maple Ridge, BC V2X 3K1<br>(604) 463-1320"
46.935783,-122.59508,"1406 Yelm Ave E<br>Yelm, WA 98597<br>(360) 400-4600"
45.528519,-122.594665,"6615 NE Glisan St<br>Portland, OR 97213"
46.934228,-122.594048,"1109 Yelm Ave E<br>Yelm, WA 98597<br>(360) 458-8830"
49.217024,-122.59379,"22709 Lougheed Highway<br>Maple Ridge, BC V2X 2V5<br>(604) 466-9576"
45.415876,-122.593077,"14840 SE Webster Rd<br>Milwaukie, OR 97015<br>(503) 303-1071"
45.587513,-122.593056,"7000 NEAirport Way  MB#3<br>Portland, OR 97218<br>(503) 284-4008"
45.587513,-122.593056,"7000 NEAirport Way  MB#23<br>Portland, OR 97219<br>(503) 281-4086"
45.547089,-122.592167,"6901 NE Sandy Blvd<br>Portland, OR 97213<br>(503) 280-1200"
45.655497,-122.589907,"8101 NE Parkway Drive<br>Vancouver, WA 98662<br>(360) 253-7123"
47.0952,-122.5866,"Building 2140-Waller Hall<br>Fort Lewis, WA 98433-5000<br>(253) 964-4210"
45.331246,-122.586304,"1839 Molalla Avenue<br>Oregon City, OR 97045<br>(503) 557-1826"
45.656319,-122.585678,"8700 NE Vancouver Mall Drive<br>Vancouver, WA 98662<br>(360) 896-0640"
45.381485,-122.582311,"95 82nd Dr<br>Gladstone, OR 97027"
45.458532,-122.580757,"8955 SE 82nd Ave<br>Portland, OR 97266<br>(503) 788-2000"
48.843542,-122.580544,"1815 Main Street<br>Ferndale, WA 98248<br>(360) 312-8106"
45.321191,-122.580381,"19701 S. Hwy 213<br>Oregon City, OR 97045<br>(503) 657-8869"
45.323921,-122.580101,"19574 Mollala Ave.<br>Oregon City, OR 97045<br>(503) 655-2916"
47.304484,-122.579748,"5001 Olympic Drive NW<br>Gig Harbor, WA 98335<br>(253) 853-7047"
47.302042,-122.579335,"4830 Point Fosdick Dr NW<br>Gig Harbor, WA 98335<br>(253) 851-6860"
47.302597,-122.579331,"4904 Pt Fosdick Drive NW<br>Gig Harbor, WA 98335<br>(253) 851-5230"
45.453027,-122.579134,"9610 SE 82nd Avenue<br>Portland, OR 97266<br>(503) 788-7910"
45.501208,-122.578669,"2834 SE 82nd Ave<br>Portland, OR 97266<br>(503) 771-1585"
45.490717,-122.577722,"4328 SE 82nd Ave<br>Portland, OR 97266<br>(503) 788-0608"
45.582779,-122.576694,"HMSHost 7000 NEAirport Way<br>Portland, OR 97218<br>(503) 281-4061"
45.582779,-122.576694,"7000 NEAirport Way<br>Portland, OR 97218"
45.436899,-122.57651,"12000 SE 82nd Avenue<br>Portland, OR 97266<br>(503) 659-0953"
38.104007,-122.571164,"900 Diablo Ave.<br>Novato, CA 94947<br>(415) 898-1503"
45.431803,-122.570642,"9000 E Sunnyside Rd<br>Clackamas, OR 97015<br>(503) 658-1057"
45.432753,-122.570574,"9078 SE Sunnyside Road<br>Clackamas, OR 97015<br>(503) 659-8455"
38.105973,-122.569669,"880 De Long Ave.<br>Novato, CA 94947-3253<br>(415) 893-9356"
38.111559,-122.567756,"7514 Redwood Blvd<br>Novato, CA 94945<br>(415) 878-2002"
45.576028,-122.566156,"9401 NE Cascades Pkwy<br>Portland, OR 97220<br>(971) 230-1930"
37.97997,-122.56502,"838 Sir Francis Drake Blvd.<br>San Anselmo, CA 94960<br>(415) 456-9157"
45.144686,-122.564879,"1525 W Main Street<br>Molalla, OR 97367<br>(503) 829-4848"
45.518313,-122.562286,"9800 SE Washington St<br>Portland, OR 97216<br>(503) 252-5850"
45.433547,-122.559799,"10225 SE Sunnyside Rd<br>Clackamas, OR 97015<br>(503) 786-7814"
45.781403,-122.559671,"2108 W. Main St<br>Battle Ground, WA 98604<br>(360) 687-4130"
45.53352,-122.559239,"10112 N.E. HALSEY Street<br>Portland, OR 97220<br>(503) 251-2164"
45.573105,-122.558205,"10119 NE Cascade Parkway<br>Portland, OR 97220<br>(503) 281-4946"
45.530673,-122.558128,"1111 NE 102nd<br>Portland, OR 97220"
45.519378,-122.558015,"10215 SE Stark<br>Portland, OR 97216-2741<br>(503) 252-1360"
49.22036,-122.557648,"23981 Dewdney Trunk Road<br>Maple Ridge, BC V4R 1W1<br>(604) 463-4859"
45.665722,-122.557448,"11211 NE 4th Plain Blvd<br>Vancouver, WA 98662<br>(360) 253-4249"
38.093507,-122.554994,"132 Vintage Way<br>Novato, CA 94945<br>(415) 898-4147"
45.621287,-122.554148,"11502 SE Mill Plain Blvd.<br>Vancouver, WA 98684<br>(360) 253-5270"
45.677196,-122.551351,"7411 NE 117th Ave<br>Vancouver, WA 98662<br>(360) 896-3508"
38.008115,-122.548855,"950 Las Gallinas<br>San Rafael, CA 94903<br>(415) 479-6111"
45.781353,-122.548808,"11 N.W. 12th Avenue<br>Battle Ground, WA 98604<br>(360) 666-2874"
45.619942,-122.54806,"12101 SE Mill Plain Blvd<br>Vancouver, WA 98683<br>(360) 891-3626"
45.781584,-122.546734,"904 West Main Street<br>Battle Ground, WA 98604"
38.0091,-122.5459,"260 Northgate One<br>San Rafael, CA 94903<br>(415) 492-1928"
45.771598,-122.541091,"401 SW 12th Street<br>Battle Ground, WA 98604<br>(360) 666-5104"
45.503639,-122.540519,"11906 SE Division<br>Portland, OR 97266<br>(503) 762-1424"
45.429485,-122.539497,"12012 SE Sunnyside Road<br>Clackamas, OR 97015<br>(503) 698-7109"
47.222581,-122.53924,"3830 Bridgeport Way<br>Tacoma, WA 98466<br>(253) 564-1077"
45.429339,-122.539196,"12032 SE Sunnyside Road<br>Clackamas, OR 97015<br>(503) 698-1121"
45.496247,-122.53881,"3527 SE 122nd<br>Portland, OR 97236<br>(503) 760-5448"
45.524906,-122.538708,"221 NE 122nd Ave<br>Portland, OR 97220<br>(503) 261-2550"
47.221356,-122.538609,"3842 Bridgeport Way W.<br>Tacoma, WA 98466<br>(253) 565-6215"
45.479889,-122.537156,"5838 NE 122nd Ave<br>Portland, OR 97230-1078<br>(503) 252-3880"
45.684854,-122.535672,"8300 NE 137th Ave<br>Vancouver, WA 98682<br>(360) 883-6430"
45.504476,-122.533632,"12613 SE Division<br>Portland, OR 97236-3131<br>(503) 760-1493"
45.616915,-122.531507,"13719 SE Millplain Blvd.<br>Vancouver, WA 98684<br>(360) 891-4245"
38.05875,-122.530785,"5720 Nave Drive<br>Novato, CA 94947<br>(415) 881-9256"
37.894461,-122.530736,"45 Camino Alto<br>Mill Valley, CA 94941-2929<br>(415) 388-1811"
37.926278,-122.530358,"137 Corte Madera<br>Corte Madera, CA 94925<br>(415) 927-1960"
37.970848,-122.529831,"700 B Street<br>San Rafael, CA 94901"
47.200471,-122.529139,"6305 Bridgeport Way W<br>University Place, WA 98467<br>(253) 460-4000"
37.973351,-122.528381,"1100 Fourth Street<br>San Rafael, CA 94901<br>(415) 455-8158"
47.235762,-122.527298,"6720 Regents  Boulevard W<br>Tacoma, WA 98466<br>(253) 460-3089"
47.243589,-122.52637,"1816 S Mildred<br>Tacoma, WA 98465<br>(253) 565-0666"
37.881207,-122.524756,"247 Shoreline Highway<br>Mill Valley, CA 94941<br>(415) 383-4437"
37.9453,-122.5233,"270 Bon Air Shopping Center<br>Greenbrae, CA 94304-2416<br>(415) 461-1164"
37.969157,-122.522752,"647 Irwin St<br>San Rafael, CA 94915<br>(415) 485-4964"
47.806782,-122.521649,"8196 SR 104 & Hansville Road<br>Kingston, WA 98346<br>(360) 297-1800"
47.164293,-122.52062,"10223 Gravelly Lake Dr SW<br>Lakewood, WA 98499<br>(253) 581-2072"
47.25619,-122.520092,"6201 6th Ave<br>Tacoma, WA 98406<br>(253) 564-7029"
37.969822,-122.519632,"777 Grand Avenue<br>San Rafael, CA 94901<br>(415) 454-2765"
47.635162,-122.519451,"253 High School Rd NE<br>Bainbridge Island, WA 98110<br>(206) 842-7197"
47.161696,-122.518629,"6040 Main Street SW<br>Lakewood, WA 98498<br>(253) 588-9404"
47.269453,-122.515885,"2405 N Pearl St<br>Tacoma, WA 98407<br>(253) 752-5407"
47.272398,-122.515861,"2637 North Pearl Street<br>Tacoma, WA 98407<br>(253) 759-9251"
37.931093,-122.515758,"1732A Redwood Hwy<br>Corte Madera, CA 94925<br>(415) 927-3343"
37.898648,-122.513097,"110 Strawberry Village<br>Mill Valley, CA 94941<br>(415) 360-9016"
47.16614,-122.511456,"5700 100th Street<br>Tacoma, WA 98411<br>(253) 984-0981"
37.9479,-122.510629,"1801 Larkspur Landing Circle<br>Larkspur, CA 94939<br>(415) 925-9153"
37.873331,-122.510147,"190 Donahue St<br>Marin City, CA 94965<br>(415) 289-0743"
48.789312,-122.508913,"1031 W. Bakerview Rd<br>Bellingham, WA 98226<br>(360) 734-0133"
47.180247,-122.508523,"8223 Steilacoom Blvd  Lakewood<br>Lakewood, WA 98498<br>(253) 588-0194"
45.670928,-122.507272,"6700 NE 162nd Ave. Suite 500<br>Vancouver, WA 98682<br>(360) 944-2680"
45.636627,-122.50622,"1900A NE 162nd Ave.<br>Vancouver, WA 98684<br>(360) 604-0972"
45.615908,-122.504855,"16320 SE Mill Plain Blvd.<br>Vancouver, WA 98683<br>(360) 253-8035"
37.891825,-122.504494,"306 Strawberry Village<br>Mill Valley, CA 94941<br>(415) 381-8308"
37.594982,-122.502846,"1227 Linda Mar Shopping Center<br>Pacifica, CA 94044<br>(650) 738-1652"
47.234003,-122.501884,"4802 Center Street<br>Tacoma, WA 98409<br>(253) 564-1175"
45.605519,-122.501325,"16600 SE McGillivray Blvd<br>Vancouver, WA 98683-8421<br>(360) 260-3300"
47.243804,-122.497455,"4505 S 19th St<br>Tacoma, WA 98405"
52.979719,-122.497035,"445 Reid St<br>Quesnel, BC V2J 2M7"
37.649452,-122.492819,"12 Manor Plaza<br>Pacifica, CA 94044<br>(650) 359-2751"
47.129444,-122.49,"Bldg 504<br>McChord AFB, WA 98438<br>(253) 964-4430"
47.27135,-122.489317,"2602 North Proctor<br>Tacoma, WA 98407<br>(253) 756-1859"
37.753953,-122.488788,"2350 Noriega Street<br>San Francisco, CA 94122"
48.934325,-122.487299,"8071 GUIDE MERIDIAN RD. #101<br>LYNDEN, WA 98264<br>(360) 318-0688"
48.797278,-122.48595,"4285 Guide Meridian<br>Bellingham, WA 98226<br>(360) 650-0883"
48.767546,-122.484934,"2814 Meridian Street<br>Bellingham, WA 98225<br>(360) 647-8128"
48.934221,-122.484536,"8082 Guide Meridian Ave<br>Lynden, WA 98264<br>(360) 354-4207"
47.163368,-122.484356,"10314 S Tacoma Way<br>Lakewood, WA 98499<br>(253) 984-0898"
37.58267,-122.483955,"1380 Linda Mar SC<br>Pacifica, CA 94044<br>(650) 359-6707"
37.7016,-122.4834,"332 Westlake Center<br>Daly City, CA 94015<br>(650) 994-2948"
47.206205,-122.483074,"3514 South 56th Street<br>Tacoma, WA 98409<br>(253) 475-1757"
37.85498,-122.479337,"14-16 Princess Street<br>Sausalito, CA 94965<br>(415) 332-0320"
48.749326,-122.47855,"132 E. Holly St<br>Bellingham, WA 98225-4719<br>(360) 738-7539"
47.235865,-122.478414,"3130 South 23rd<br>Tacoma, WA 98405<br>(253) 593-0946"
37.780088,-122.478041,"5455 Geary Blvd<br>San Francisco, CA 94121<br>(415) 386-8813"
45.526171,-122.477903,"499 NE 181st Street<br>Portland, OR 97230-6660<br>(503) 666-2197"
37.661097,-122.477571,"791 Hickey Boulevard<br>Pacifica, CA 94044<br>(650) 359-7147"
37.763762,-122.477486,"1800 Irving Street<br>San Francisco, CA 94122<br>(415) 242-7970"
45.617219,-122.47683,"530 SE 192nd Avenue  Bldg #1<br>Vancouver, WA 98683<br>(360) 896-8784"
45.59632,-122.476735,"19215 SE 34th St<br>Camas, WA 98607<br>(360) 253-8317"
37.729141,-122.476733,"3251 20th Ave<br>San Francisco, CA 94132<br>(415) 665-4956"
45.594751,-122.476644,"3505 SE 192nd Ave<br>Vancouver, WA 98683<br>(360) 253-3016"
45.489878,-122.476637,"1001 SW Highland Dr<br>Gresham, OR 97030<br>(503) 674-7080"
38.298852,-122.475246,"19239 Sonoma Highway<br>Sonoma, CA 95476<br>(707) 935-3187"
47.254926,-122.473289,"601 Pine St<br>Tacoma, WA 98405<br>(253) 572-9525"
48.730972,-122.471078,"222 36th Street<br>Bellingham, WA 98225<br>(360) 756-8535"
37.701531,-122.47083,"2001 Junipero Serra Blvd<br>Daly City, CA 94014<br>(650) 758-2660"
47.223165,-122.470035,"2505 S. 38th Street<br>Tacoma, WA 98409<br>(253) 475-5644"
37.670967,-122.46941,"49 Serramonte Center<br>Daly City, CA 94015<br>(650) 997-4556"
37.663808,-122.469157,"321 Gellert Blvd<br>Daly City, CA 94015<br>(650) 756-4116"
47.2205,-122.4678,"4502 South Steel Street<br>Tacoma, WA 98409<br>(253) 473-7727"
38.291025,-122.467174,"477 W Napa<br>Sonoma, CA 95476"
37.739737,-122.46706,"100 West Portal<br>San Francisco, CA 94127<br>(415) 664-8370"
37.764301,-122.466,"744 Irving Street<br>San Francisco, CA 94122<br>(415) 664-8340"
37.698205,-122.464125,"6873 Mission Street<br>Daly City, CA 94014-2558<br>(650) 757-5274"
47.274663,-122.464045,"2112 N. 30th Street<br>Tacoma, WA 98403<br>(253) 573-1901"
48.743486,-122.464025,"800 Lakeway Dr<br>Bellingham, WA 98226-6295<br>(360) 676-1102"
47.255867,-122.463353,"2008 6th Avenue<br>Tacoma, WA 98403<br>(253) 272-1023"
49.057658,-122.460647,"27566 Frazer Hwy<br>Aldergrove, BC V4W 3N5"
47.192179,-122.45933,"1723 South 72nd Street<br>Tacoma, WA 98408<br>(253) 671-8337"
48.771433,-122.458736,"1225 East Sunset Drive<br>Bellingham, WA 98226<br>(360) 734-0702"
37.764217,-122.456249,"350 Parnassus Street<br>San Francisco, CA 94117<br>(415) 665-6406"
45.418584,-122.455885,"20151 SE 212th<br>Damascus, OR 97009<br>(503) 658-7000"
37.78604,-122.453151,"3595 California St.<br>San Francisco, CA 94118<br>(415) 387-2249"
37.74456,-122.452562,"675 Portola Drive<br>San Francisco, CA 94127<br>(415) 682-9477"
47.222492,-122.45182,"1302 S 38th St<br>Tacoma, WA 98418-3919<br>(253) 471-1630"
37.79771,-122.44893,"1 Letterman Drive<br>San Francisco, CA 94129<br>(415) 441-1740"
37.775794,-122.446454,"1799 Fulton Street<br>San Francisco, CA 94117<br>(415) 474-8930"
37.6631,-122.4461,"100 McClellan Dr<br>South San Francisco, CA 94080<br>(650) 952-0740"
48.768814,-122.444071,"2900 Woburn<br>Bellingham, WA 98226<br>(360) 715-3870"
48.770239,-122.443439,"2915 New Market Street<br>Bellingham, WA 98226<br>(360) 671-6103"
45.50468,-122.441084,"1018 NW Civic<br>Gresham, OR 97030<br>(503) 667-9943"
37.785974,-122.439697,"1750 Divisadero Street<br>San Francisco, CA 94115<br>(415) 346-7193"
37.743671,-122.438981,"5290 Diamond Heights Blvd<br>San Francisco, CA 94131<br>(415) 824-7744"
37.800749,-122.438512,"2132 Chestnut Street<br>San Francisco, CA 94123<br>(415) 673-6781"
47.25318,-122.438137,"1101 Pacific Avenue South<br>Tacoma, WA 98424<br>(253) 572-2219"
45.505235,-122.438111,"611 SW 11th St<br>Portland, OR 97205<br>(503) 224-3400"
47.24551,-122.437353,"1748 Pacific Ave<br>Tacoma, WA 98402<br>(253) 573-1789"
47.189053,-122.435444,"7250 Pacific Avenue<br>Tacoma, WA 98408<br>(253) 475-6040"
37.469758,-122.435369,"80 Cabrillo Highway N<br>Half Moon Bay, CA 94019<br>(650) 726-5753"
37.788472,-122.434812,"2435 California Street<br>San Francisco, CA 94115<br>(415) 567-3978"
37.760968,-122.434672,"4094 18th Street<br>San Francisco, CA 94114<br>(415) 626-6263"
47.113486,-122.434233,"15803 Pacific Ave S<br>Tacoma, WA 98444<br>(253) 539-1864"
37.790209,-122.434082,"2222 Fillmore Street<br>San Francisco, CA 94115<br>(415) 673-3171"
47.140489,-122.433948,"12821 Pacific Ave S.<br>Tacoma, WA 98444<br>(253) 539-3049"
37.804538,-122.433663,"3735 Buchanan<br>San Francisco, CA 94123<br>(415) 346-2852"
45.529673,-122.433629,"22352 Park Lane<br>Wood Village, OR 97060<br>(503) 465-2146"
47.11295,-122.432993,"15805  Pacific Ave South<br>Spanaway, WA 98444<br>(253) 535-2033"
47.117723,-122.432815,"104 Military Rd S<br>Tacoma, WA 98444<br>(253) 538-1688"
37.7833,-122.432727,"1501 Fillmore Street<br>San Francisco, CA 94115<br>(415) 441-7969"
37.751244,-122.431622,"3995 24th Street<br>San Francisco, CA 94114<br>(415) 826-1118"
37.783066,-122.431013,"1335 Webster<br>San Francisco, CA 94115<br>(415) 921-4557"
37.797543,-122.430316,"1899 Union Street<br>San Francisco, CA 94123<br>(415) 921-4049"
37.767513,-122.428985,"2018 Market Street<br>San Francisco, CA 94111<br>(415) 431-5561"
45.529691,-122.428682,"22855 NE Park Lane<br>Wood Village, OR 97060<br>(503) 492-5008"
37.769117,-122.427846,"2020 Market St.<br>San Francisco, CA 94114-1314<br>(415) 861-7660"
37.625819,-122.426051,"851 Cherry Avenue<br>San Bruno, CA 94066<br>(650) 615-9471"
37.796726,-122.422222,"2165 Polk Street<br>San Francisco, CA 94109<br>(415) 921-1351"
37.79019,-122.422193,"1560 Van Ness Avenue<br>San Francisco, CA 94109-4606<br>(415) 749-0365"
37.788501,-122.422058,"1401 Van Ness Avenue<br>San Francisco, CA 94109<br>(415) 474-7095"
37.636267,-122.420724,"1150 El Camino Real<br>San Bruno, CA 94066<br>(650) 588-2451"
37.63535,-122.420309,"1212 El Camino Real<br>San Bruno, CA 94066<br>(650) 872-0348"
37.806734,-122.420177,"680 Beach Street<br>San Francisco, CA 94109<br>(415) 409-0840"
37.636043,-122.418771,"1150 El Camino Real<br>San Bruno, CA 94066<br>(650) 827-0171"
37.775,-122.418304,"HMSHost   SFO  Terminal 3 United Gatte73<br>San Francisco, CA 94125"
45.505693,-122.417544,"1455 NE Division<br>Gresham, OR 97030<br>(503) 492-7270"
37.776702,-122.417521,"1390 Market Street<br>San Francisco, CA 94102<br>(415) 863-8332"
37.80709,-122.417294,"2801 Jones S<br>San Francisco, CA 94133<br>(415) 776-7907"
40.574352,-122.416732,"3425 Placer Street<br>Redding, CA 96001<br>(530) 241-4174"
37.805406,-122.415229,"499 Bay Street<br>San Francisco, CA 94133<br>(415) 409-1847"
37.778211,-122.415176,"1231 Market Street<br>San Francisco, CA 94103<br>(415) 522-1438"
45.502642,-122.41439,"1755 NE Burnside<br>Gresham, OR 97030-5730<br>(503) 665-1030"
37.775584,-122.413029,"1298 Howard Street<br>San Francisco, CA 94103<br>(415) 565-7385"
45.527711,-122.412863,"2501 SW Cherry Park Rd<br>Troutdale, OR 97060<br>(503) 674-7000"
37.62456,-122.411241,"501 San Mateo Avenue<br>San Bruno, CA 94066<br>(650) 952-4295"
37.785521,-122.41117,"333 O'Farrell Street<br>San Francisco, CA 94102<br>(415) 771-1400"
47.578738,-122.411157,"2742 Alki Ave SW<br>Seattle, WA 98116-2812<br>(206) 933-6974"
37.655042,-122.410956,"329 Grand Avenue<br>South San Francisco, CA 94080<br>(650) 589-1939"
37.762998,-122.410503,"2727 Mariposa St<br>San Francisco, CA 94110<br>(415) 552-2649"
37.787122,-122.410237,"442 Geary Street<br>San Francisco, CA 94102<br>(415) 922-9086"
45.498708,-122.409722,"2233 E Burnside RD<br>Gresham, OR 97030<br>(503) 465-8091"
37.785727,-122.409531,"222 Mason St<br>San Francisco, CA 94102<br>(415) 296-9056"
37.765683,-122.409528,"2300 16th St. Unit 203<br>San Francisco, CA 94103<br>(415) 575-1120"
37.786751,-122.408467,"201 Powell Street<br>San Francisco, CA 94102<br>(415) 835-2470"
37.788984,-122.408226,"462 Powell Street<br>San Francisco, CA 94102<br>(415) 956-2321"
37.786835,-122.407463,"170 O'Farrell St<br>San Francisco, CA 94102<br>(415) 296-4328"
45.495441,-122.407384,"2442 E Burnside<br>Gresham, OR 97080<br>(503) 666-9524"
37.784143,-122.407361,"865 Market Street<br>San Francisco, CA 94103<br>(415) 348-0940"
47.190684,-122.407005,"1624 72nd St E<br>Tacoma, WA 98404<br>(253) 537-2124"
37.789353,-122.406943,"390 Stockton Street<br>San Francisco, CA 94108-4609<br>(415) 989-1637"
47.192101,-122.406508,"1621 East 72nd Street<br>Tacoma, WA 98404<br>(253) 475-2565"
37.785854,-122.405763,"780 Market Street<br>San Francisco, CA 94108<br>(415) 677-4493"
37.790062,-122.405519,"359 Grant Avenue<br>San Francisco, CA 94108<br>(415) 392-2365"
37.784943,-122.404786,"55 Fourth St<br>San Francisco, CA 94103<br>(415) 442-6069"
37.784444,-122.40426,"120 4th Street<br>San Francisco, CA 94103<br>(415) 284-0579"
37.790592,-122.403973,"264 Kearny Street<br>San Francisco, CA 94104<br>(415) 788-1363"
37.791944,-122.403889,"555 California St<br>San Francisco, CA 94104<br>(415) 788-8670"
37.770195,-122.403641,"689 Townsend<br>San Francisco, CA 94103<br>(415) 255-7561"
37.78757,-122.403392,"7 Third Street<br>San Francisco, CA 94103<br>(415) 979-9530"
37.765389,-122.403111,"350 Rhode Island<br>San Francisco, CA 94103<br>(415) 864-6383"
37.794558,-122.402661,"565 Clay Street<br>San Francisco, CA 94111<br>(415) 834-0578"
37.789663,-122.402018,"44 Montgomery Street<br>San Francisco, CA 94104<br>(415) 397-4394"
37.652203,-122.40201,"176 Gateway Blvd.<br>South San Francisco, CA 94080<br>(650) 866-3904"
37.802814,-122.401934,"1255 Battery Street<br>San Francisco, CA 94111<br>(415) 402-0379"
37.795062,-122.401844,"505 Sansome Street<br>San Francisco, CA 94111<br>(415) 391-5966"
37.787458,-122.40131,"74 New Montgomery Street<br>San Francisco, CA 94105<br>(415) 284-0651"
37.793546,-122.401245,"343 Sansome<br>San Francisco, CA 94104<br>(415) 989-8759"
37.788587,-122.400958,"36 2nd Street<br>San Francisco, CA 94104<br>(415) 227-1665"
45.519067,-122.400888,"25619 SE Stark St<br>Troutdale, OR 97060-3305<br>(503) 667-3311"
37.797659,-122.400884,"701 Battery Street<br>San Francisco, CA 94111<br>(415) 986-5808"
37.795197,-122.400733,"425 Battery Street<br>San Francisco, CA 94111<br>(415) 445-9030"
37.793196,-122.399916,"295 California Street<br>San Francisco, CA 94111<br>(415) 986-2349"
47.639831,-122.399911,"3300 W. McGraw St.<br>Seattle, WA 98199<br>(206) 298-3390"
37.78505,-122.399817,"201 3rd St.<br>San Francisco, CA 94103-3124<br>(415) 644-0072"
45.519242,-122.398842,"25691 SE Stark<br>Troutdale, OR 97060<br>(503) 667-1722"
37.791325,-122.398763,"455 Market Street<br>San Francisco, CA 94102<br>(415) 243-9792"
37.796988,-122.398317,"99 Jackson Street<br>San Francisco, CA 94111<br>(415) 421-4464"
37.791735,-122.397525,"333 Market Street<br>San Francisco, CA 94105<br>(415) 543-4786"
37.792465,-122.39748,"398 Market Street<br>San Francisco, CA 94111<br>(415) 788-5856"
37.79357,-122.397278,"52 California Street<br>San Francisco, CA 94111<br>(415) 398-8630"
37.794148,-122.396886,"27 Drumm Street<br>San Francisco, CA 94111<br>(415) 392-3825"
37.785997,-122.396829,"299 Second St<br>San Francisco, CA 94105<br>(415) 947-0700"
37.778862,-122.396445,"490 Brannan Street<br>San Francisco, CA 94107-1713<br>(415) 974-5926"
37.790778,-122.396315,"340 Mission Street<br>San Francisco, CA 94105<br>(415) 538-0900"
37.789938,-122.394841,"199 Fremont Street<br>San Francisco, CA 94111<br>(415) 615-0458"
37.792015,-122.394626,"123 Mission Street<br>San Francisco, CA 94105<br>(415) 543-1510"
37.602786,-122.394232,"513 Broadway<br>Millbrae, CA 94030<br>(650) 692-9567"
47.579879,-122.39415,"2650 NE 49th ST<br>Seattle, WA 98105<br>(206) 522-6410"
37.776574,-122.394128,"298 King Street<br>San Francisco, CA 94107<br>(415) 633-1001"
37.793333,-122.393889,"1 Market Plaza<br>San Francisco, CA 94103<br>(415) 543-6345"
37.776855,-122.393849,"280 King Street<br>San Francisco, CA 94107<br>(415) 344-0351"
37.76731,-122.393644,"1700 Owens Street<br>San Francisco, CA 94158<br>(415) 252-7423"
40.587872,-122.392799,"1400 Eureka Way<br>Redding, CA 96001<br>(530) 242-6443"
37.791388,-122.392148,"201 Spear Street<br>San Francisco, CA 94105<br>(415) 974-5077"
47.544436,-122.387685,"6501 California Ave<br>Seattle, WA 98136<br>(206) 938-6371"
47.670551,-122.386739,"2237 NW 58th Street<br>Seattle, WA 98107"
47.559815,-122.385485,"4754 42nd Ave SW<br>Seattle, WA 98116<br>(206) 932-6026"
47.580969,-122.385163,"2622 California Ave SW<br>Seattle, WA 98116<br>(206) 937-5112"
37.59584,-122.385124,"1865 El Camino Real<br>Burlingame, CA 94010<br>(650) 652-3929"
47.668701,-122.385023,"2204 NW Market Street<br>Seattle, WA 98107<br>(206) 782-2795"
37.926372,-122.384596,"133 Park Place<br>Point Richmond, CA 94801<br>(510) 236-6021"
47.561438,-122.384531,"4100 SW Alaska St<br>Seattle, WA 98116<br>(206) 923-6390"
47.58116,-122.383912,"4101 SW Admiral Way<br>Seattle, WA 98116<br>(206) 937-5010"
47.296191,-122.382117,"34024 Hoyt Road SW<br>Federal Way, WA 98023<br>(253) 838-1023"
49.061908,-122.381221,"3250 Mt. Lehman Road<br>Abbotsford, BC V4X 2M9<br>(604) 856-2531"
40.529619,-122.381081,"2400 S. Bonnyview Rd.<br>Redding, CA 96001<br>(530) 244-3418"
47.293807,-122.380337,"4101 49th Ave N.E.<br>Tacoma, WA 98422<br>(253) 925-5040"
47.648231,-122.378061,"1607 West Dravus Street<br>Seattle, WA 98119<br>(206) 285-6230"
47.81033,-122.377318,"502 Main Street<br>Edmonds, WA 98020<br>(425) 778-6093"
47.564309,-122.377022,"4408 Fauntleroy Way SW<br>Seattle, WA 98126<br>(206) 932-4230"
47.689633,-122.376777,"8340 15th Ave NW<br>Seattle, WA 98117<br>(206) 782-7464"
45.581452,-122.376098,"291 C St<br>Washougal, WA 98671<br>(360) 835-5205"
40.609512,-122.376048,"155 E. Lake Blvd.<br>Redding, CA 96003<br>(530) 246-3758"
47.668254,-122.374888,"1423 NW Market St<br>Seattle, WA 98107<br>(206) 784-6480"
37.602844,-122.37206,"1800 Old Bayshore Hwy<br>Burlingame, CA 94010"
47.629916,-122.371915,"1144  Elliott Avenue West<br>Seattle, WA 98119<br>(206) 283-9629"
47.660651,-122.370763,"4400 11th Avenue NW<br>Seattle, WA 98107<br>(206) 789-9322"
47.791294,-122.367693,"22828 100th Ave W<br>Edmonds, WA 98020<br>(425) 775-0542"
47.79069,-122.367522,"10016 Edmonds Way<br>Edmonds, WA 98020<br>(425) 670-2616"
47.516701,-122.36727,"9620 28th Ave SW<br>Seattle, WA 98126-4102<br>(206) 923-6840"
47.784304,-122.365982,"23632 SR-99<br>Edmonds, WA 98026<br>(425) 778-1411"
47.561696,-122.365467,"4634 26th Avenue NE<br>Seattle, WA 98105<br>(206) 522-5228"
47.765129,-122.365241,"606 NW Richmond Beach Road<br>Seattle, WA 98177<br>(206) 546-5750"
37.585873,-122.364935,"1230 Broadway<br>Burlingame, CA 94010<br>(650) 344-0747"
47.463532,-122.364767,"2580 S 156th St<br>Seattle, WA 98158"
47.463532,-122.364767,"2580 S 156th St<br>Seattle, WA 98158<br>(206) 433-5131"
47.463532,-122.364767,"2580 S 156th St<br>Seattle, WA 98158<br>(206) 433-5131"
47.463532,-122.364767,"2580 S 156th St<br>Seattle, WA 98158<br>(206) 433-5131"
47.463532,-122.364767,"2580 S 156th St<br>Seattle, WA 98158"
47.463532,-122.364767,"2580 S 156th St<br>Seattle, WA 98158"
47.463532,-122.364767,"2580 S 156th St<br>Seattle, WA 98158<br>(206) 433-5131"
47.463532,-122.364767,"2580 S 156th St<br>Seattle, WA 98158"
47.463532,-122.364767,"2580 S 156th St<br>Seattle, WA 98158"
47.463532,-122.364767,"2580 S 156th St<br>Seattle, WA 98158<br>(206) 433-5603"
47.521042,-122.364569,"2500 SW Barton<br>Seattle, WA 98126<br>(206) 935-0585"
47.522646,-122.36455,"9023 25th Ave SW<br>Seattle, WA 98106<br>(206) 937-1732"
47.243064,-122.36446,"4756 Pacific Highway East<br>Fife, WA 98424<br>(253) 922-6193"
47.701954,-122.363819,"9999 Holman Rd NW<br>Seattle, WA 98117<br>(206) 783-8104"
47.300676,-122.361479,"2109 SW 336TH ST<br>Federal Way, WA 98023<br>(253) 838-9941"
47.298305,-122.358946,"33702 21st Ave SW<br>Federal Way, WA 98032<br>(253) 927-0528"
48.240916,-122.358727,"27008 92nd Ave NW<br>Stanwood, WA 98292<br>(360) 629-2701"
47.156606,-122.358459,"11012 Canyon Road E.<br>Puyallup, WA 98373<br>(253) 537-3770"
47.623924,-122.357643,"516 1st Ave W<br>Seattle, WA 98109<br>(206) 494-1885"
48.241442,-122.357606,"27008 92nd Ave NW<br>Stanwood, WA 98292<br>(360) 629-2500"
47.638211,-122.357322,"2135 Queen Anne Ave N<br>Seattle, WA 98119<br>(206) 301-9477"
47.622802,-122.356743,"425 Queen Anne Avenue N<br>Seattle, WA 98109<br>(206) 691-3396"
47.150438,-122.356718,"11601 Canyon Rd East<br>Puyallup, WA 98373<br>(253) 531-8952"
40.585693,-122.35636,"913 DANA DR<br>Redding, CA 96003<br>(530) 221-9380"
47.09632,-122.356341,"5602 176th St. East<br>Frederickson, WA 98375<br>(253) 875-2458"
47.637625,-122.356266,"2100 Queen Anne Ave N<br>Seattle, WA 98109<br>(206) 282-8090"
47.096324,-122.356102,"5616 176th E<br>Puyallup, WA 98375<br>(253) 414-1737"
47.152017,-122.355787,"11501 Canyon Rd. East<br>PUYALLUP, WA 98737<br>(253) 536-4792"
47.622125,-122.355627,"305 Harrison Street<br>Seattle, WA 98109<br>(206) 728-4077"
47.322966,-122.355608,"1656 SW Dash Point Road<br>Federal Way, WA 98023<br>(253) 942-3907"
47.677825,-122.355275,"316 N. 67th Street<br>Seattle, WA 98103<br>(206) 781-4153"
47.692808,-122.354591,"8704 Greenwood Ave N<br>Seattle, WA 98103<br>(206) 494-0433"
40.571029,-122.353191,"990 Cypress Ave<br>Redding, CA 96001<br>(530) 247-3030"
40.589715,-122.351971,"1240 Churn Creek Road<br>Redding, CA 96003<br>(530) 222-5342"
40.571369,-122.351145,"1030 East Cypress Avenue<br>Redding, CA 96002<br>(530) 226-0537"
40.571042,-122.350535,"1070 East Cypress Ave<br>Redding, CA 96002"
47.650115,-122.34983,"3415 B. Fremont Avenue North<br>Seattle, WA 98103<br>(206) 633-3706"
37.590781,-122.347764,"111 DeAnza Blvd<br>San Mateo, CA 94402<br>(650) 345-0483"
47.611009,-122.347559,"2200 Alaskan Way<br>Seattle, WA 98121<br>(206) 448-9304"
47.61393,-122.347414,"2326 1st Avenue<br>Seattle, WA 98121<br>(206) 956-4322"
47.624707,-122.34732,"500 Mercer Avenue<br>Seattle, WA 98109"
47.775681,-122.34652,"20121 Aurora Ave N<br>Shoreline, WA 98133<br>(206) 533-9520"
37.579471,-122.345818,"1160 Burlingame Avenue<br>Burlingame, CA 94010<br>(650) 348-5138"
47.724365,-122.345485,"13025 Aurora Avenue North<br>Seattle, WA 98133<br>(206) 368-9366"
37.964765,-122.345013,"14330 San Pablo Ave<br>San Pablo, CA 94806<br>(510) 215-1102"
47.762077,-122.344466,"18336 Midvale Ave. N.<br>Shoreline, WA 98133<br>(206) 542-2093"
47.702232,-122.344047,"10002 Aurora Avenue North<br>Seattle, WA 98133<br>(206) 524-6122"
47.740916,-122.344039,"15332 Aurora Ave N<br>Seattle, WA 98133<br>(206) 363-8683"
47.612481,-122.342413,"211 Lenora<br>Seattle, WA 98121<br>(206) 441-1388"
47.63007,-122.342326,"1211 Dexter Avenue North<br>Seattle, WA 98109<br>(206) 283-2211"
47.609767,-122.342307,"1912 Pike Place<br>Seattle, WA 98101<br>(206) 448-8762"
47.613989,-122.342162,"2101 Fourth Avenue<br>Seattle, WA 98121<br>(206) 728-0883"
47.629969,-122.340132,"1200 Westlake Ave<br>Seattle, WA 98109<br>(206) 216-0306"
47.609071,-122.339888,"102 Pike St<br>Seattle, WA 98101<br>(206) 903-8010"
47.604482,-122.339114,"1101 Alaskan Way<br>Seattle, WA 98101<br>(206) 554-7060"
48.465474,-122.338812,"199 Cascade Mall Dr<br>Burlington, WA 98233<br>(360) 757-6737"
47.609367,-122.33866,"221 Pike Street<br>Seattle, WA 98101<br>(206) 625-5177"
47.621532,-122.338433,"330 Westlake Ave N<br>Seattle, WA 98109<br>(206) 382-4624"
47.607899,-122.337914,"1301 2nd Ave<br>Seattle, WA 98101<br>(206) 264-0289"
47.618054,-122.337635,"2200 Westlake Avenue<br>Seattle, WA 98121<br>(206) 223-2173"
47.610908,-122.337613,"1501 Fourth Avenue<br>Seattle, WA 98101<br>(206) 625-1255"
48.435477,-122.337582,"100-300 E College Way<br>Mount Vernon, WA 98273<br>(360) 424-7406"
47.607827,-122.337549,"200 University Street<br>Seattle, WA 98101<br>(206) 621-9627"
48.436206,-122.337415,"315 E College<br>Mount Vernon, WA 98273<br>(360) 424-8160"
47.61155,-122.337287,"400 Pine Street<br>Seattle, WA 98101<br>(206) 652-0801"
47.61396,-122.336991,"600 Stewart Street<br>Seattle, WA 98101<br>(206) 441-6898"
48.506124,-122.33666,"9596 Old Hwy. 99 North Rd.<br>Burlington, WA 98233<br>(360) 757-7424"
47.60655,-122.336432,"1191 2nd Avenue<br>Seattle, WA 98101<br>(206) 652-8924"
47.661368,-122.336175,"1801 N 45th St<br>Seattle, WA 98103<br>(206) 632-9253"
47.611887,-122.335994,"515 Pine Street<br>Seattle, WA 98101<br>(206) 382-1201"
45.578462,-122.335906,"3307 Evergreen Way<br>Washougal, WA 98671<br>(360) 335-2000"
47.471526,-122.335756,"138 SW 148th St<br>Burien, WA 98166<br>(206) 243-3043"
47.608999,-122.335569,"1325 Fourth Avenue<br>Seattle, WA 98101<br>(206) 623-5427"
47.614062,-122.335451,"1700 Seventh Ave<br>Seattle, WA 98101<br>(206) 382-0636"
48.451345,-122.335422,"1839 S. Burlington Blvd<br>Burlington, WA 98233<br>(360) 757-1872"
47.442025,-122.335372,"17847 1st Ave S<br>Seattle, WA 98148<br>(206) 243-9340"
47.612427,-122.335349,"600 Pine Street<br>Seattle, WA 98101<br>(206) 264-1607"
47.580694,-122.335124,"2401 Utah Ave South<br>Seattle, WA 98134<br>(206) 624-9496"
47.606716,-122.335092,"1111 3rd Avenue  #2730<br>Seattle, WA 98101<br>(206) 442-9645"
47.603267,-122.334944,"823 First Ave<br>Seattle, WA 98104<br>(206) 340-9184"
47.820303,-122.334888,"7500-B 196th SW<br>Lynnwood, WA 98036<br>(425) 774-5109"
37.990212,-122.334766,"15521 San Pablo Avenue<br>Richmond, CA 94806<br>(510) 222-6095"
47.610575,-122.334738,"1420 5th Ave<br>Seattle, WA 98101<br>(206) 381-3743"
47.605526,-122.334716,"1000 Second Avenue<br>Seattle, WA 98104<br>(206) 382-1688"
47.609952,-122.334708,"1420 Fifth Avenue<br>Seattle, WA 98101<br>(206) 467-0972"
47.470566,-122.334578,"116 SW 148th Street<br>Burien, WA 98166<br>(206) 901-0238"
47.442448,-122.334331,"17829 1st Ave South<br>Normandy Park, WA 98148<br>(206) 988-6912"
47.607372,-122.334093,"1125 4th Avenue<br>Seattle, WA 98101<br>(206) 623-0860"
47.584154,-122.333987,"1962 1st Ave S.<br>Seattle, WA 98134<br>(206) 624-6045"
47.461954,-122.3339,"15838 1st Avenue South<br>Burien, WA 98148<br>(206) 243-1545"
47.601535,-122.333784,"102 First Avenue S<br>Seattle, WA 98104<br>(206) 382-2656"
47.60495,-122.33377,"999 Third Avenue<br>Seattle, WA 98104<br>(206) 748-0058"
48.46463,-122.333651,"920 S Burlington Blvd<br>Burlington, WA 98233<br>(360) 757-9100"
47.61186,-122.333569,"1524 7th Ave<br>Seattle, WA 98101<br>(206) 264-8921"
37.955368,-122.333405,"308 San Pablo Town Center<br>San Pablo, CA 94806<br>(510) 236-1544"
47.610272,-122.333214,"601 Union Street<br>Seattle, WA 98101<br>(206) 264-2534"
37.579856,-122.333113,"842 North Delaware Street<br>San Mateo, CA 94401<br>(650) 685-8864"
47.661605,-122.333074,"2110 North 45th<br>Seattle, WA 98103<br>(206) 548-9507"
47.708271,-122.332019,"2137  North Northgate Way<br>Seattle, WA 98133<br>(206) 417-1403"
47.799943,-122.331959,"21920 Highway 99<br>Edmonds, WA 98206<br>(425) 775-4286"
47.52763,-122.331805,"400 Occidental Avenue<br>Seattle, WA 98104<br>(206) 624-2561"
47.601977,-122.331723,"502 Second Avenue<br>Seattle, WA 98104<br>(206) 381-0638"
47.604828,-122.330779,"701 5th Avenue<br>Seattle, WA 98104<br>(206) 264-0152"
37.933225,-122.330463,"4500 Macdonald Ave<br>Richmond, CA 94805<br>(510) 253-1000"
47.566666,-122.330094,"4115 4th Avenue S<br>Seattle, WA 98134<br>(206) 381-1553"
47.605078,-122.329974,"700 5th Ave<br>Seattle, WA 98104<br>(206) 622-5789"
47.60445,-122.329921,"701 Fifth Avenue<br>Seattle, WA 98104<br>(206) 447-9934"
47.616694,-122.329856,"1730 Minor Avenue<br>Seattle, WA 98101<br>(206) 340-9068"
37.532826,-122.329029,"1218 W Hillsdale Blvd<br>San Mateo, CA 94403<br>(650) 345-7850"
